address,bing_type,bing_confidence,bing_latitude,bing_longitude,mapquest_type,mapquest_class,mapquest_latitude,mapquest_longitude
"1007 MORRIS PARK AVE, New York, NY, 10462",Address,High,40.848445,-73.856079,house,place,40.84853745,-73.8561234195114
"469 FLATBUSH AVENUE, New York, NY, 11225",Address,High,40.6629524230957,-73.96175384521484,house,place,40.66293035,-73.9617256983564
"351 WEST   57 STREET, New York, NY, 10019",Address,High,40.7678337097168,-73.98480224609375,,,,
"2780 STILLWELL AVENUE, New York, NY, 11224",Address,High,40.57952117919922,-73.98242950439453,house,place,40.57952565,-73.9824264038087
"8825 ASTORIA BOULEVARD, New York, NY, 11369",Address,High,40.764007568359375,-73.87921905517578,primary,highway,40.762735,-73.8742091
"2206 VICTORY BOULEVARD, New York, NY, 10314",Address,High,40.612083077430725,-74.13690023124218,house,place,40.6120162962963,-74.1370022222222
"7114 AVENUE U, New York, NY, 11234",Address,High,40.61989974975586,-73.90685272216797,house,place,40.619892,-73.9068501510335
"6409 11 AVENUE, New York, NY, 11219",Address,High,40.628883361816406,-74.00527954101562,,,,
"1839 NOSTRAND AVENUE, New York, NY, 11226",Address,High,40.64081954956055,-73.94815063476562,house,place,40.6408257,-73.948346
"2300 SOUTHERN BOULEVARD, New York, NY, 10460",Address,High,40.85004425048828,-73.87828826904297,house,place,40.85066,-73.882546
"1269 SUTTER AVENUE, New York, NY, 11208",Address,High,40.672938376665115,-73.87114226818085,house,place,40.6730223,-73.8711711
"1 EAST   66 STREET, New York, NY, 10065",Address,High,40.76868438720703,-73.9693374633789,,,,
"1310 SURF AVENUE, New York, NY, 11224",Address,High,40.575509145855904,-73.98153729736805,restaurant,amenity,40.57529315,-73.9814701031484
"705 KINGS HIGHWAY, New York, NY, 11223",Address,High,40.60647201538086,-73.96541595458984,house,place,40.60649405,-73.9654257051312
"203 CHURCH AVENUE, New York, NY, 11218",Address,High,40.643379762768745,-73.97819861769676,house,place,40.6434050612245,-73.9782249591837
"26515 HILLSIDE AVENUE, New York, NY, 11004",Address,High,40.73870849609375,-73.70323944091797,primary,highway,40.73417,-73.7230474
"522 EAST   74 STREET, New York, NY, 10021",Address,High,40.7674674987793,-73.95171356201172,,,,
"284 PROSPECT PARK WEST, New York, NY, 11215",Address,High,40.65803527832031,-73.98287963867188,house,place,40.65803965,-73.9828794274168
"12908 20 AVENUE, New York, NY, 11356",Address,High,40.78147888183594,-73.83930969238281,,,,
"759 BROADWAY, New York, NY, 10003",Address,High,40.730785578489304,-73.9922996610403,house,place,40.7308003333333,-73.9923583333333
"3406 10 STREET, New York, NY, 11106",RoadBlock,Medium,40.76647186279297,-73.93763732910156,,,,
"502 AMSTERDAM AVENUE, New York, NY, 10024",Address,High,40.786712646484375,-73.97612762451172,restaurant,amenity,40.7867051,-73.9760763442878
"730 COLUMBUS AVENUE, New York, NY, 10025",Address,High,40.79256623983383,-73.9678043872118,house,place,40.7925729,-73.9680366
"18 WEST HOUSTON STREET, New York, NY, 10012",Address,High,40.725891,-73.996986,house,place,40.7257247,-73.9970561
"10305 37 AVENUE, New York, NY, 11368",Address,High,40.7535514831543,-73.86425018310547,,,,
"60 WALL STREET, New York, NY, 10005",Address,High,40.706241607666016,-74.00850677490234,house,place,40.70617305,-74.0085160961879
"195 EAST   56 STREET, New York, NY, 11203",Address,High,40.65211974084377,-73.92454840242863,,,,
"1006 EAST  233 STREET, New York, NY, 10466",Address,High,40.89033126831055,-73.84859466552734,,,,
"56 COURT STREET, New York, NY, 11201",Address,High,40.692241,-73.991424,house,place,40.69224025,-73.991411
"120 PRINCE STREET, New York, NY, 10012",Address,High,40.725166,-73.9999,house,place,40.72513795,-73.9998537996522
"1236 238 SPOFFORD AVE, New York, NY, 10474",PopulatedPlace,Medium,40.861900329589844,-73.82689666748047,,,,
"625 8 AVENUE, New York, NY, 10018",Address,High,40.75619548559189,-73.99060919880867,,,,
"1069 WYCKOFF AVENUE, New York, NY, 11385",Address,High,40.69492721557617,-73.90245056152344,house,place,40.6948347,-73.9025375
"405 LEXINGTON AVENUE, New York, NY, 10174",Address,High,40.751818120479584,-73.97570818662643,house,place,40.7519148,-73.97553
"2491 VICTORY BOULEVARD, New York, NY, 10314",Address,High,40.61048889160156,-74.14645385742188,house,place,40.610455,-74.145886
"7905 METROPOLITAN AVENUE, New York, NY, 11379",RoadBlock,Medium,40.71329879760742,-73.87020874023438,secondary,highway,40.712727,-73.8793429
"8769 LEFFERTS BOULEVARD, New York, NY, 11418",RoadBlock,Medium,40.70029830932617,-73.83103942871094,tertiary,highway,40.6937,-73.8278299
"1418 THIRD AVENUE, New York, NY, 10028",Address,High,40.77528543770313,-73.95663768053055,,,,
"464 3 AVENUE, New York, NY, 10016",Address,High,40.74426434934139,-73.9792601019144,,,,
"437 MADISON AVENUE, New York, NY, 10022",Address,High,40.75737380981445,-73.97538757324219,house,place,40.7573564,-73.9753770320287
"1031 EAST   92 STREET, New York, NY, 11236",Address,High,40.64385986328125,-73.90760040283203,,,,
"1111 HYLAN BOULEVARD, New York, NY, 10305",Address,High,40.598819732666016,-74.07966613769531,house,place,40.5987763,-74.0796766244172
"976 RUTLAND ROAD, New York, NY, 11212",Address,High,40.6619758605957,-73.9269790649414,house,place,40.6620102,-73.9270310119616
"148 WEST   72 STREET, New York, NY, 10023",Address,High,40.777954906225204,-73.98020826280117,,,,
"0 34 STREET, New York, NY, 10001",RoadBlock,High,40.75688171386719,-74.00457000732422,,,,
"364 WEST  110 STREET, New York, NY, 10025",Address,High,40.80150939524174,-73.9605724811554,,,,
"1423 AVENUE J, New York, NY, 11230",Address,High,40.625411,-73.96157,house,place,40.6252876,-73.9615588
"0 GUARDIA AIRPORT PARKING, New York, NY, 11371",Postcode1,Medium,40.7744140625,-73.87322235107422,,,,
"73 NEW DORP PLAZA, New York, NY, 10306",Address,High,40.57345725595951,-74.11774054169655,house,place,40.5734594,-74.1178655
"277 EAST KINGSBRIDGE ROAD, New York, NY, 10458",Address,High,40.86351938545704,-73.89420457184315,house,place,40.863511,-73.8940382
"203 GIFFORDS LANE, New York, NY, 10308",Address,High,40.55643081665039,-74.15235900878906,house,place,40.5564115,-74.1525006
"94 FULTON STREET, New York, NY, 10038",Address,High,40.709205627441406,-74.00618743896484,house,place,40.7092092,-74.0061839673184
"10004 4 AVENUE, New York, NY, 11209",Address,High,40.61272211372852,-74.03381422162056,,,,
"178 BROADWAY, New York, NY, 11211",Address,High,40.709777,-73.962585,restaurant,amenity,40.7098661,-73.9625564
"1 EAST   60 STREET, New York, NY, 10022",Address,High,40.764854326844215,-73.97237218916416,,,,
"837 2 AVENUE, New York, NY, 10017",Address,High,40.75170135498047,-73.97119140625,,,,
"21 WEST   52 STREET, New York, NY, 10019",Address,High,40.76038107275963,-73.97757098078728,,,,
"658 CLARENCE AVE, New York, NY, 10465",Address,High,40.82939529418945,-73.81359100341797,house,place,40.8291639,-73.814330092878
"1028 3 AVENUE, New York, NY, 10065",Address,High,40.7628288269043,-73.96601867675781,,,,
"45 EAST   18 STREET, New York, NY, 10003",Address,High,40.73759460449219,-73.98916625976562,,,,
"261 DRIGGS AVENUE, New York, NY, 11222",Address,High,40.722408294677734,-73.94840240478516,house,place,40.7225402,-73.948318
"62 CHARLES STREET, New York, NY, 10014",Address,High,40.734872594475746,-74.00297082960606,restaurant,amenity,40.7348424,-74.0030609
"100 CENTRE STREET, New York, NY, 10013",Address,High,40.716094970703125,-74.00077819824219,house,place,40.7160736,-74.0011699
"657 FAIRVIEW AVENUE, New York, NY, 11385",Address,High,40.70689010620117,-73.90547943115234,house,place,40.7067229,-73.9056608
"180 CENTRAL PARK SOUTH, New York, NY, 10019",Address,High,40.76653942465782,-73.97839576005936,house,place,40.76636125,-73.9790105390132
"108 AVENUE B, New York, NY, 10009",Address,High,40.725051,-73.981475,bar,amenity,40.7250437,-73.981466
"9640 QUEENS BOULEVARD, New York, NY, 11374",RoadBlock,Medium,40.72753143310547,-73.85546875,trunk,highway,40.7266949,-73.8524594
"215 WEST   57 STREET, New York, NY, 10019",Address,High,40.76594464480877,-73.9809163659811,,,,
"845 LEXINGTON AVENUE, New York, NY, 10065",Address,High,40.76542663574219,-73.96553039550781,secondary,highway,40.792248,-73.9462784
"311 WEST   51 STREET, New York, NY, 10019",Address,High,40.763404846191406,-73.98621368408203,,,,
"386 FLATBUSH AVENUE EXTENSION, New York, NY, 11201",Address,High,40.6900991499424,-73.98167476058006,cafe,amenity,40.6902136,-73.9818937
"251 EAST   31 STREET, New York, NY, 10016",Address,High,40.74365749955177,-73.97899858653545,,,,
"2602 EAST   15 STREET, New York, NY, 11235",Address,High,40.587803050875664,-73.95438864827156,,,,
".1-A EAST 77 ST, New York, NY, 10021",Postcode1,Medium,40.769309997558594,-73.95890045166016,,,,
"56 9 AVENUE, New York, NY, 10011",Address,High,40.741207122802734,-74.00476837158203,,,,
"156-71 CROSSBAY BOULEVARD, New York, NY, 11414",Address,High,40.66309064626694,-73.84068310260773,,,,
"600 WEST DRIVE, New York, NY, 11363",Address,High,40.77665328979492,-73.75224304199219,residential,highway,40.776592,-73.7528949
"225 EAST   60 STREET, New York, NY, 10022",Address,High,40.76189,-73.964866,,,,
"461 37 STREET, New York, NY, 11232",Address,High,40.652793884277344,-74.00296020507812,,,,
"3013 STEINWAY STREET, New York, NY, 11103",RoadBlock,Medium,40.76885986328125,-73.9109115600586,secondary,highway,40.7612614,-73.9171494
"2222 HAVILAND AVENUE, New York, NY, 10462",Address,High,40.83061873912811,-73.84937480092049,,,,
"567 HUDSON STREET, New York, NY, 10014",Address,High,40.7357195019722,-74.0060319006443,house,place,40.7356974,-74.006162
"67 OLYMPIA BOULEVARD, New York, NY, 10305",Address,High,40.593238830566406,-74.07083129882812,house,place,40.59316345,-74.0707188790837
"390 HYLAN BOULEVARD, New York, NY, 10305",Address,High,40.6094856262207,-74.07418823242188,house,place,40.6096122,-74.0744621
"1 BOUCK COURT, New York, NY, 11223",Address,High,40.58897399902344,-73.97362518310547,house,place,40.588805,-73.974082
"15 EAST    7 STREET, New York, NY, 10003",Address,High,40.72883987426758,-73.9896469116211,,,,
"93 BAXTER STREET, New York, NY, 10013",Address,High,40.71698360145092,-73.99958588182926,house,place,40.71689995,-73.9994056224359
"6736 HYLAN BOULEVARD, New York, NY, 10309",Address,High,40.50725555419922,-74.22679138183594,house,place,40.5079586521739,-74.2284375652174
"331 WEST    4 STREET, New York, NY, 10014",Address,High,40.738037,-74.003684,,,,
"1449 NOSTRAND AVENUE, New York, NY, 11226",Address,High,40.650997161865234,-73.94925689697266,house,place,40.6509830714286,-73.9494820714286
"1616 2 AVENUE, New York, NY, 10028",Address,High,40.776329040527344,-73.95246124267578,,,,
"3 EAST   52 STREET, New York, NY, 10022",Address,High,40.75972366333008,-73.97554779052734,,,,
"4035 BROADWAY, New York, NY, 10032",Address,High,40.84221392869949,-73.93931463360786,house,place,40.8420958,-73.9394768
"842 2 AVENUE, New York, NY, 10017",Address,High,40.75149917602539,-73.97063446044922,,,,
"146 MULBERRY STREET, New York, NY, 10013",Address,High,40.718875885009766,-73.99724578857422,house,place,40.7188745,-73.9973165046324
"103 MACDOUGAL STREET, New York, NY, 10012",Address,High,40.729801177978516,-74.00105285644531,house,place,40.7296498181818,-74.0009125454545
"7201 8 AVENUE, New York, NY, 11228",Address,High,40.62843322753906,-74.01653289794922,,,,
"15 WEST   43 STREET, New York, NY, 10036",Address,High,40.754772,-73.981269,,,,
"106 WEST HOUSTON STREET, New York, NY, 10012",Address,High,40.72745132446289,-74.00035858154297,house,place,40.7273898,-74.0004065
"405 EAST   52 STREET, New York, NY, 10022",Address,High,40.755044147372246,-73.9649149775505,,,,
"1758 VICTORY BOULEVARD, New York, NY, 10314",Address,High,40.61306543648243,-74.12219636142254,house,place,40.6130238421053,-74.1221663157895
"113 WEST   13 STREET, New York, NY, 10011",Address,High,40.737159729003906,-73.99791717529297,,,,
"206 NASSAU AVENUE, New York, NY, 11222",Address,High,40.72538375854492,-73.94461059570312,house,place,40.7255051,-73.9446335
"72 EAST  161 STREET, New York, NY, 10451",Address,High,40.82739137113094,-73.92524510622025,,,,
"203 WEST   14 STREET, New York, NY, 10011",Address,High,40.738895416259766,-73.99978637695312,,,,
"229 HAVEMEYER STREET, New York, NY, 11211",Address,High,40.70903353393078,-73.9591059833765,restaurant,amenity,40.7089856,-73.9590515
"1024 AMSTERDAM AVENUE, New York, NY, 10025",Address,High,40.80329239368439,-73.96370194852352,restaurant,amenity,40.80335,-73.9638207
"18108 UNION TURNPIKE, New York, NY, 11366",Address,High,40.72716522216797,-73.7864761352539,primary,highway,40.7257082,-73.7917409
"8104 37 AVENUE, New York, NY, 11372",Address,High,40.74943542480469,-73.88497924804688,,,,
"6322 18 AVENUE, New York, NY, 11204",Address,High,40.61997985839844,-73.98971557617188,,,,
"326 WEST   46 STREET, New York, NY, 10036",Address,High,40.760044,-73.989128,,,,
"351 EAST   62 STREET, New York, NY, 10065",Address,High,40.76197,-73.961158,,,,
"319321 323 W. 46TH ST., New York, NY, 10036",Postcode1,Medium,40.759315490722656,-73.98978424072266,,,,
"2911 WEST   15 STREET, New York, NY, 11224",Address,High,40.57616424560547,-73.98220825195312,,,,
"236 WEST   56 STREET, New York, NY, 10019",Address,High,40.76552963256836,-73.98273468017578,,,,
"10701 CORONA AVENUE, New York, NY, 11368",Address,High,40.743865966796875,-73.85609436035156,tertiary,highway,40.7405434,-73.8763708
"4515 BROADWAY, New York, NY, 11103",Address,High,40.75695037841797,-73.91425323486328,secondary,highway,40.7550435,-73.9106384
"358 EAST   57 STREET, New York, NY, 10022",Address,High,40.758270263671875,-73.96350860595703,,,,
"413 8 AVENUE, New York, NY, 10001",Address,High,40.750205993652344,-73.99532318115234,,,,
"331 EAST  204 STREET, New York, NY, 10467",Address,High,40.872336477041245,-73.87789137661457,,,,
"26 PELL STREET, New York, NY, 10013",Address,High,40.71504592895508,-73.998291015625,house,place,40.71506035,-73.9982874204366
"25541 JAMAICA AVENUE, New York, NY, 11001",RoadBlock,Medium,40.72372817993164,-73.72647857666016,primary,highway,40.718172,-73.7361329
"21 MOTT STREET, New York, NY, 10013",Address,High,40.71441650390625,-73.9990234375,house,place,40.7144241,-73.9988882
"1 LISPENARD ST, New York, NY, 10013",Address,High,40.720699310302734,-74.00492858886719,pub,amenity,40.72064,-74.00497
"14609 JAMAICA AVENUE, New York, NY, 11435",Address,High,40.70207214355469,-73.80860137939453,secondary,highway,40.701881,-73.8055149
"16304 JAMAICA AVENUE, New York, NY, 11432",RoadBlock,Medium,40.70795822143555,-73.78433227539062,primary,highway,40.71619,-73.7447549
"10807 ROCKAWAY BEACH BOULEVARD, New York, NY, 11694",Address,High,40.58122634887695,-73.8299331665039,primary,highway,40.5877576,-73.8098649
"416 5 AVENUE, New York, NY, 11215",Address,High,40.670097,-73.985916,,,,
"524 PORT RICHMOND AVENUE, New York, NY, 10302",Address,High,40.630066618323326,-74.14019733667374,house,place,40.63016765,-74.1403508488449
"2929 AVENUE R, New York, NY, 11229",Address,High,40.6074495613575,-73.942985907197,house,place,40.60762345,-73.94288025
"146 EAST   46 STREET, New York, NY, 10017",Address,High,40.753543853759766,-73.97370910644531,,,,
"11909 ATLANTIC AVENUE, New York, NY, 11418",Address,High,40.6944694519043,-73.82769012451172,primary,highway,40.6938688,-73.8288935
"80 BEAVER STREET, New York, NY, 10005",Address,High,40.70515,-74.008743,house,place,40.7052742,-74.0087887
"13558 LEFFERTS BOULEVARD, New York, NY, 11420",RoadBlock,Medium,40.67802047729492,-73.82010650634766,secondary,highway,40.668726,-73.8214429
"20224 ROCKAWAY POINT BOULEVARD, New York, NY, 11697",RoadBlock,Medium,40.56079864501953,-73.91268920898438,tertiary,highway,40.564021,-73.8955409
"1611 AVENUE U, New York, NY, 11229",Address,High,40.599231,-73.95507,house,place,40.59928195,-73.9550849162613
"137 WEST   33 STREET, New York, NY, 10001",Address,High,40.75007247924805,-73.98991394042969,,,,
"1118 1 AVENUE, New York, NY, 10065",Address,High,40.760986,-73.960578,,,,
"433 PARK AVENUE SOUTH, New York, NY, 10016",Address,High,40.744144,-73.98307,house,place,40.7441367,-73.9830655459822
"6828 MAIN STREET, New York, NY, 11367",RoadBlock,Medium,40.73292922973633,-73.82520294189453,primary,highway,40.7163182,-73.8165131
"2901 EMMONS AVENUE, New York, NY, 11235",Address,High,40.584232330322266,-73.93954467773438,house,place,40.5840647,-73.9395638
"168 WEST    4 STREET, New York, NY, 10014",Address,High,40.732009,-74.00164,,,,
"3432 NOSTRAND AVENUE, New York, NY, 11229",Address,High,40.60021209716797,-73.94219207763672,house,place,40.5996008421053,-73.9418387368421
"5820 BROADWAY, New York, NY, 10463",Address,High,40.885101,-73.900253,house,place,40.885148,-73.90032465
"3737 JUNCTION BOULEVARD, New York, NY, 11368",Address,High,40.750579833984375,-73.86992645263672,secondary,highway,40.7304232,-73.8625973
"10807 72 AVENUE, New York, NY, 11375",RoadBlock,Medium,40.71512985229492,-73.84485626220703,,,,
"11 TRINITY PLACE, New York, NY, 10006",Address,High,40.70684552192688,-74.01351191103458,house,place,40.706556,-74.0136334
"7124 MAIN STREET, New York, NY, 11367",RoadBlock,Medium,40.73292922973633,-73.82520294189453,primary,highway,40.7163182,-73.8165131
"225 WEST    4 STREET, New York, NY, 10014",Address,High,40.73385402560234,-74.00279581546783,,,,
"80 HENRY STREET, New York, NY, 11201",Address,High,40.698501,-73.992729,fast_food,amenity,40.69849715,-73.9927279
"627 2 AVENUE, New York, NY, 10016",Address,High,40.74513626098633,-73.9759750366211,,,,
"697 FOREST AVENUE, New York, NY, 10310",Address,High,40.629756927490234,-74.11199188232422,house,place,40.62969855,-74.1123015977431
"155 EAST   55 STREET, New York, NY, 10022",Address,High,40.759445,-73.96907,,,,
"84 EBONY COURT, New York, NY, 11229",Address,High,40.593967,-73.929916,residential,highway,40.591884,-73.9274149
"21 EAST  170 STREET, New York, NY, 10452",Address,High,40.84008760750294,-73.91718439757824,,,,
"22020 HILLSIDE AVENUE, New York, NY, 11427",RoadBlock,Medium,40.724700927734375,-73.75411224365234,primary,highway,40.705949,-73.8090009
"4340 BOSTON ROAD, New York, NY, 10475",Address,High,40.88990020751953,-73.81932067871094,house,place,40.8898905,-73.8194201025827
"8769 SUTPHIN BOULEVARD, New York, NY, 11435",Address,High,40.70542526245117,-73.80917358398438,house,place,40.7051955714286,-73.8093165102041
"8032 BAXTER AVENUE, New York, NY, 11373",RoadBlock,Medium,40.74580001831055,-73.88384246826172,tertiary,highway,40.746418,-73.8834029
"135 FLAGG PLACE, New York, NY, 10304",Address,High,40.588340759277344,-74.10465240478516,house,place,40.5884208,-74.1049697500351
"12402 JAMAICA AVENUE, New York, NY, 11418",Address,High,40.70060729980469,-73.82628631591797,secondary,highway,40.6996791,-73.8321687
"1191 CASTLE HILL AVENUE, New York, NY, 10462",Address,High,40.83167687058449,-73.85104715824127,house,place,40.831799,-73.85121
"617 VANDERBILT AVENUE, New York, NY, 11238",Address,High,40.67881393432617,-73.96812438964844,house,place,40.67881775,-73.9681570471538
"4 CHARLES STREET, New York, NY, 10014",Address,High,40.73512649536133,-74.00064849853516,house,place,40.735084,-74.0006347092288
"1361 FIRST AVENUE, New York, NY, 10021",Address,High,40.768699645996094,-73.95570373535156,,,,
"6514 18 AVENUE, New York, NY, 11204",Address,High,40.61888122558594,-73.99079895019531,,,,
"459 2 AVENUE, New York, NY, 10010",Address,High,40.73980712890625,-73.9798355102539,,,,
"2894 SCHURZ AVE, New York, NY, 10465",Address,High,40.81369400024414,-73.81510162353516,house,place,40.81404905,-73.8141915366938
"2301 FLATBUSH AVENUE, New York, NY, 11234",Address,High,40.61419677734375,-73.92688751220703,primary,highway,40.638422,-73.9535999
"421 9 AVENUE, New York, NY, 10001",Address,High,40.753173828125,-73.996826171875,,,,
"10001 4 AVENUE, New York, NY, 11209",Address,High,40.61259,-74.033454,,,,
"363 WEST BROADWAY, New York, NY, 10013",Address,High,40.72302728891373,-74.00314785540104,house,place,40.7230644,-74.0030603333333
"2257 31 STREET, New York, NY, 11105",RoadBlock,Medium,40.779720306396484,-73.90631866455078,,,,
"4408 60TH ST. - STORE, New York, NY, 11377",,,,,,,,
"1291 3 AVENUE, New York, NY, 10021",Address,High,40.77104949951172,-73.95930480957031,,,,
"21249 26 AVENUE, New York, NY, 11360",RoadBlock,Medium,40.77986145019531,-73.77205657958984,,,,
"893 9 AVENUE, New York, NY, 10019",Address,High,40.76836936175823,-73.98545399308205,,,,
"232 EAST   64 STREET, New York, NY, 10065",Address,High,40.763835,-73.962882,,,,
"6946 MYRTLE AVENUE, New York, NY, 11385",RoadBlock,Medium,40.7032585144043,-73.86473083496094,primary,highway,40.7033802,-73.8628182
"302 EAST   12 STREET, New York, NY, 10003",Address,High,40.730613708496094,-73.98554229736328,,,,
"20 ST MARKS PLACE, New York, NY, 10003",Address,High,40.7288703918457,-73.98898315429688,house,place,40.72887075,-73.9889762421297
"17 HARRISON AVENUE, New York, NY, 10302",Address,High,40.63697052001953,-74.13499450683594,house,place,40.6369001,-74.1349928262742
"7302 COOPER AVENUE, New York, NY, 11385",Address,High,40.70390319824219,-73.87688446044922,secondary,highway,40.7107823,-73.8649828
"1372 BROADWAY, New York, NY, 10018",Address,High,40.752285,-73.986915,house,place,40.7523476,-73.9872394
"4201 28 AVENUE, New York, NY, 11103",Address,High,40.76479721069336,-73.9117660522461,,,,
"710 NEW DORP LANE, New York, NY, 10306",Address,High,40.56553649902344,-74.100341796875,house,place,40.5655526,-74.1003310700072
"4933 BROADWAY, New York, NY, 10034",Address,High,40.867615789175034,-73.92156176269054,house,place,40.8676771,-73.9217283
"48 WEST   55 STREET, New York, NY, 10019",Address,High,40.762317,-73.97702,,,,
"984 SECOND AVENUE, New York, NY, 10022",Address,High,40.756107330322266,-73.96727752685547,,,,
"16103 CROSSBAY BOULEVARD, New York, NY, 11414",Address,High,40.65575408935547,-73.8386001586914,,,,
"521 EAST   68 STREET, New York, NY, 10065",Address,High,40.764207914471626,-73.95529724657536,,,,
"2080 BROADWAY, New York, NY, 10023",Address,High,40.77801056206226,-73.98189537227154,house,place,40.7783061,-73.9816331
"8128 LEFFERTS BOULEVARD, New York, NY, 11415",Address,High,40.708961486816406,-73.83053588867188,tertiary,highway,40.6937,-73.8278299
"943 FLATBUSH AVENUE, New York, NY, 11226",Address,High,40.64857855439186,-73.95820140838623,house,place,40.6487122792549,-73.9581902584821
"7550 101 AVENUE, New York, NY, 11416",RoadBlock,Medium,40.68574142456055,-73.84075927734375,,,,
"1900 BROADWAY, New York, NY, 10023",Address,High,40.77137477695942,-73.98198053240776,bar,amenity,40.7719194,-73.9818733
"2725 86 STREET, New York, NY, 11223",Address,High,40.594418719410896,-73.98129925131798,restaurant,amenity,40.5947528,-73.981260425
"3027 STRATTON STREET, New York, NY, 11354",RoadBlock,Medium,40.76993179321289,-73.83458709716797,residential,highway,40.7700486,-73.8348861
"4280 KATONAH AVE, New York, NY, 10470",Address,High,40.897945404052734,-73.86697387695312,house,place,40.8979634,-73.8670272
"1402 CLOVE ROAD, New York, NY, 10301",Address,High,40.613174,-74.100578,house,place,40.613315,-74.100518
"320 EAST   43 STREET, New York, NY, 10017",Address,High,40.749866,-73.971221,,,,
"68 GREENWICH AVENUE, New York, NY, 10011",Address,High,40.736236572265625,-74.00067138671875,house,place,40.7362261,-74.0007468
"5823 AVENUE T, New York, NY, 11234",Address,High,40.61534263193607,-73.91847588121891,house,place,40.6153833877551,-73.9184641020408
"0 GRAND CENTRAL TERMINAL, New York, NY, 10017",RoadBlock,High,40.75210952758789,-73.97766876220703,station,railway,40.752706,-73.9772751209147
"441 EAST    6 STREET, New York, NY, 10009",Address,High,40.72584915161133,-73.98430633544922,,,,
"2001 HYLAN BOULEVARD, New York, NY, 10306",Address,High,40.5811653137207,-74.09901428222656,house,place,40.5811873,-74.0989219375381
"67 WEST   44 STREET, New York, NY, 10036",Address,High,40.75571537017822,-73.98203149437904,,,,
"21 EAST   47 STREET, New York, NY, 10017",Address,High,40.75629425048828,-73.97711944580078,,,,
"1583 2 AVENUE, New York, NY, 10028",Address,High,40.775482,-73.953796,,,,
"260 6 AVENUE, New York, NY, 10014",Address,High,40.72890853881836,-74.0021743774414,,,,
"603 2 AVENUE, New York, NY, 10016",Address,High,40.744319915771484,-73.97657012939453,,,,
"140 WEST   44 STREET, New York, NY, 10036",Address,High,40.75659942626953,-73.98483276367188,,,,
"193 FROST STREET, New York, NY, 11211",Address,High,40.71839141845703,-73.9434585571289,restaurant,amenity,40.7183487,-73.9431505
"155157 CHRISTIE ST., New York, NY, 10002",RoadBlock,Medium,40.7430305480957,-73.85945129394531,,,,
"123 MULBERRY STREET, New York, NY, 10013",Address,High,40.717960357666016,-73.99824523925781,house,place,40.7179401,-73.9981835
"106 BEVERLY ROAD, New York, NY, 11218",Address,High,40.64281515777111,-73.97862911224365,,,,
"59 GROVE STREET, New York, NY, 10014",Address,High,40.73323440551758,-74.0033950805664,house,place,40.73322015,-74.003382043377
"7504 13 AVENUE, New York, NY, 11228",Address,High,40.62028503417969,-74.00785827636719,,,,
"245 WEST   16 STREET, New York, NY, 10011",Address,High,40.74082565307617,-74.00041198730469,,,,
"180 PRINCE STREET, New York, NY, 10012",Address,High,40.726154,-74.002159,restaurant,amenity,40.7262443,-74.002053
"111 EAST   54 STREET, New York, NY, 10022",Address,High,40.759639739990234,-73.97145080566406,,,,
"22033 NORTHERN BOULEVARD, New York, NY, 11361",Address,High,40.76187515258789,-73.76078796386719,primary,highway,40.762808,-73.7547389
"18925 UNION TURNPIKE, New York, NY, 11366",RoadBlock,Medium,40.72639846801758,-73.78958892822266,primary,highway,40.7257082,-73.7917409
"783 5 AVENUE, New York, NY, 10022",Address,High,40.764465406537056,-73.97295154631138,,,,
"17 EAST   48 STREET, New York, NY, 10017",Address,High,40.75702667236328,-73.97691345214844,,,,
"1008 2 AVENUE, New York, NY, 10022",Address,High,40.75694650411606,-73.96694205701351,,,,
"7147 KISSENA BOULEVARD, New York, NY, 11367",RoadBlock,Medium,40.73884963989258,-73.81503295898438,secondary,highway,40.7391597,-73.8150887
"673 MADISON AVENUE, New York, NY, 10065",Address,High,40.764835357666016,-73.97016906738281,house,place,40.7647958,-73.9701323
"840 2 AVENUE, New York, NY, 10017",Address,High,40.75145721435547,-73.97066497802734,,,,
"403416 2ND ST, New York, NY, 11358",RoadBlock,Medium,40.776771545410156,-73.93451690673828,,,,
"3533 JOHNSON AVENUE, New York, NY, 10463",Address,High,40.88603653013706,-73.9099182933569,house,place,40.8863875,-73.909908
"135 EAST   50 STREET, New York, NY, 10022",Address,High,40.75646209716797,-73.9717025756836,,,,
"1082 ST JOHNS PLACE, New York, NY, 11213",Address,High,40.670955,-73.942573,house,place,40.67098895,-73.9425692502043
"252 WEST   46 STREET, New York, NY, 10036",Address,High,40.759277,-73.987312,,,,
"372 FOREST AVENUE, New York, NY, 10301",Address,High,40.630786,-74.101821,house,place,40.6309405294118,-74.1018997647059
"302 EAST   92 STREET, New York, NY, 10128",Address,High,40.781314849853516,-73.94865417480469,,,,
"3005 WHITESTONE EXPRESSWAY, New York, NY, 11354",RoadBlock,Medium,40.76884078979492,-73.83627319335938,house,place,40.7695017959184,-73.8368028979592
"8502 GRAND AVENUE, New York, NY, 11373",RoadBlock,Medium,40.732181549072266,-73.88465118408203,primary,highway,40.7255556,-73.8959764
"240 DE KALB AVENUE, New York, NY, 11205",Address,High,40.689266204833984,-73.96955871582031,,,,
"591 CITY ISLAND AVE, New York, NY, 10464",Address,High,40.85424363613129,-73.79071824252605,house,place,40.8557939615385,-73.7923430769231
"25 BRIDGE STREET, New York, NY, 10004",Address,High,40.703723,-74.012374,house,place,40.70373105,-74.0123827736884
"119 MAC DOUGAL STREET, New York, NY, 10012",Address,High,40.730235055089,-74.00035969913006,house,place,40.73241025,-73.99857625
"123 WEST   44 STREET, New York, NY, 10036",Address,High,40.75680923461914,-73.98416137695312,,,,
"1366 PENNSYLVANIA AVENUE, New York, NY, 11239",Address,High,40.64791738986969,-73.8820306956768,house,place,40.6481266428571,-73.8819235204082
"2018 BROADWAY, New York, NY, 10023",Address,High,40.77610217034817,-73.98197583854198,house,place,40.776037,-73.9818678
"33 UNIVERSITY PLACE, New York, NY, 10003",Address,High,40.73191747069359,-73.99444676935673,restaurant,amenity,40.7319768,-73.9942396
"395 FLATBUSH AVENUE EXTENSION, New York, NY, 11201",Address,High,40.689388275146484,-73.980712890625,house,place,40.6893819,-73.980710622718
"718 2 AVENUE, New York, NY, 10016",Address,High,40.74754333496094,-73.97350311279297,,,,
"2375 EAST TREMONT AVENUE, New York, NY, 10462",Address,High,40.842582,-73.855216,house,place,40.8422816190476,-73.8557176190476
"1 WATER STREET, New York, NY, 11201",Address,High,40.70305019617081,-73.99434484541416,house,place,40.70379635,-73.99479210407
"126 CHAMBERS STREET, New York, NY, 10007",Address,High,40.71516418457031,-74.00894927978516,bar,amenity,40.71517575,-74.0089340192244
"2 CITY ISLAND AVE, New York, NY, 10464",Address,High,40.83769607543945,-73.7822494506836,restaurant,amenity,40.8377609,-73.7826553001917
"846 EMPIRE BOULEVARD, New York, NY, 11213",Address,High,40.663276,-73.932106,house,place,40.6634838333333,-73.9321818333333
"2701 BOSTON POST ROAD, New York, NY, 10467",RoadBlock,Medium,40.896060943603516,-73.80574035644531,,,,
"4302 QUEENS BOULEVARD, New York, NY, 11104",Address,High,40.743045806884766,-73.92125701904297,trunk,highway,40.7426167,-73.9156882
"4202 FT HAMILTON PARKWAY, New York, NY, 11219",Address,High,40.641647055745125,-73.99285286664963,house,place,40.6417573,-73.9930386428864
"151 UNION STREET, New York, NY, 11231",Address,High,40.684291,-74.001815,house,place,40.6842145,-74.0018450722686
"10615 71 AVENUE, New York, NY, 11375",RoadBlock,Medium,40.722900390625,-73.83956909179688,,,,
"1022 MADISON AVENUE, New York, NY, 10075",Address,High,40.77618408203125,-73.96241760253906,house,place,40.7761112,-73.9624638
"359 WEST BROADWAY, New York, NY, 10013",Address,High,40.722965598106384,-74.00320015847683,house,place,40.7230088,-74.0030657
"701 UTICA AVENUE, New York, NY, 11203",Address,High,40.65625101327896,-73.93081203103065,house,place,40.656225826087,-73.9307535652174
"129 EAST   18 STREET, New York, NY, 10003",Address,High,40.73641821742058,-73.98673743009567,,,,
"6132 SPRINGFIELD BOULEVARD, New York, NY, 11364",RoadBlock,Medium,40.73910903930664,-73.7494125366211,primary,highway,40.712127,-73.7363979
"75 MAIDEN LANE, New York, NY, 10038",Address,High,40.707759,-74.007438,house,place,40.7076862,-74.0076664
"69 MACDOUGAL STREET, New York, NY, 10012",Address,High,40.72859573364258,-74.00200653076172,restaurant,amenity,40.7285324,-74.0018748
"170 WEST  231 STREET, New York, NY, 10463",Address,High,40.878370106220245,-73.9034816622734,,,,
"576581 BROADWAY, New York, NY, 10463",RoadBlock,Medium,40.88064956665039,-73.90357208251953,primary,highway,40.88589,-73.9002634
"4021 BROADWAY, New York, NY, 10032",Address,High,40.84185250103474,-73.9393649250269,house,place,40.8418993,-73.9394929
"1134 MADISON AVENUE, New York, NY, 10028",Address,High,40.77983474731445,-73.9598617553711,house,place,40.7798352,-73.9598594342002
"147 WEST FOURTH STREET, New York, NY, 10012",Address,High,40.73164749145508,-74.00032043457031,,,,
"210 EAST   46 STREET, New York, NY, 10017",Address,High,40.75309954583645,-73.97218242287636,,,,
"8318 PARSONS BOULEVARD, New York, NY, 11432",Address,High,40.715187072753906,-73.80797576904297,tertiary,highway,40.7102323,-73.8055778
"32 WITHERS ST, New York, NY, 11211",Address,High,40.716373443603516,-73.95115661621094,house,place,40.71648225,-73.9511997928771
"1827 COLLEGE POINT BOULEVARD, New York, NY, 11356",Address,High,40.7823486328125,-73.84561920166016,secondary,highway,40.778605,-73.8461129
"427 10 AVENUE, New York, NY, 10001",Address,High,40.754417419433594,-73.99966430664062,,,,
"4272 KATONAH AVENUE, New York, NY, 10470",Address,High,40.897814109921455,-73.8671725988388,house,place,40.897784,-73.8671206666667
"22210 NORTHERN BOULEVARD, New York, NY, 11361",Address,High,40.76157760620117,-73.75926208496094,primary,highway,40.762808,-73.7547389
"326 SPRING STREET, New York, NY, 10013",Address,High,40.725845,-74.00949,bar,amenity,40.7259033,-74.0094874
"6815 NORTHERN BOULEVARD, New York, NY, 11377",RoadBlock,Medium,40.753700256347656,-73.90292358398438,primary,highway,40.7530862,-73.9090902
"14474 NORTHERN BOULEVARD, New York, NY, 11354",Address,High,40.76471710205078,-73.82073974609375,primary,highway,40.7633488,-73.8298749
"188 BEDFORD AVENUE, New York, NY, 11249",Address,High,40.717742,-73.958145,house,place,40.7177063,-73.9580945
"3267 RICHMOND AVENUE, New York, NY, 10312",Address,High,40.55949702858925,-74.16952662169933,house,place,40.5595566,-74.1689514
"336 KNICKERBOCKER AVENUE, New York, NY, 11237",Address,High,40.70102310180664,-73.92264556884766,house,place,40.7010929,-73.9226014
"108 EAST   38 STREET, New York, NY, 10016",Address,High,40.74934110045433,-73.97901333868504,,,,
"960 MADISON AVENUE, New York, NY, 10021",Address,High,40.77413558959961,-73.96407318115234,restaurant,amenity,40.7739694,-73.9636633
"138140 EAST   74 STREET, New York, NY, 10021",RoadBlock,Medium,40.76911926269531,-73.95503997802734,,,,
"16 GRAMERCY PARK SOUTH, New York, NY, 10003",Address,High,40.73758316040039,-73.9866714477539,house,place,40.7377163,-73.9865754
"2901 FRANCIS LEWIS BOULEVARD, New York, NY, 11358",Address,High,40.770172119140625,-73.7926025390625,primary,highway,40.7695958,-73.7923262
"24904 HORACE HARDING BOULEVARD, New York, NY, 11362",RoadBlock,Medium,40.75754165649414,-73.73892211914062,,,,
"172 BLEECKER STREET, New York, NY, 10012",Address,High,40.72885572910309,-74.00068894028664,house,place,40.72876555,-74.0007203174814
"201 EAST   49 STREET, New York, NY, 10017",Address,High,40.75516417622566,-73.97103309631348,,,,
"16011 WILLETS POINT BOULEVARD, New York, NY, 11357",Address,High,40.78074264526367,-73.8023452758789,tertiary,highway,40.776863,-73.8216699
"117 MAC DOUGAL STREET, New York, NY, 10012",Address,High,40.73020553588867,-74.00057983398438,theatre,amenity,40.730194,-74.0005646099782
"1745 FOREST AVENUE, New York, NY, 10303",Address,High,40.625179,-74.146972,house,place,40.6250873,-74.1470178
"25810 HILLSIDE AVENUE, New York, NY, 11004",Address,High,40.736778259277344,-73.7095718383789,primary,highway,40.73417,-73.7230474
"9006 CHURCH AVENUE, New York, NY, 11236",Address,High,40.65337099134922,-73.91900025308132,house,place,40.65276205,-73.9195093940313
"314 EAST   86 STREET, New York, NY, 10028",Address,High,40.777324,-73.951171,,,,
"1327 JACKSON AVENUE, New York, NY, 11101",RoadBlock,Medium,40.74679946899414,-73.94320678710938,primary,highway,40.748016,-73.9397385
"1701 FOSTER AVENUE, New York, NY, 11230",Address,High,40.63504211604595,-73.96118000149727,house,place,40.6351456,-73.9611724
"312 WEST   58 STREET, New York, NY, 10019",Address,High,40.76759085059166,-73.98292802274227,,,,
"180 3 AVENUE, New York, NY, 10003",Address,High,40.73500603437424,-73.98600250482559,,,,
"19901 32 AVENUE, New York, NY, 11358",Address,High,40.76969909667969,-73.7901611328125,,,,
"407 WEST   42 STREET, New York, NY, 10036",Address,High,40.75862556695938,-73.99297021329403,,,,
"99 EAST   52 STREET, New York, NY, 10022",Address,High,40.758575946092606,-73.97329956293106,,,,
"25509 NORTHERN BOULEVARD, New York, NY, 11362",Address,High,40.7723503112793,-73.73445892333984,primary,highway,40.7643563,-73.8259375
"4801 16 AVENUE, New York, NY, 11204",Address,High,40.63140869140625,-73.9848403930664,,,,
"500 GRAND STREET, New York, NY, 10002",Address,High,40.71491830050945,-73.9831305295229,house,place,40.7149616,-73.9828321
"159 AVENUE O, New York, NY, 11204",Address,High,40.611026,-73.978874,house,place,40.61099545,-73.9788648456365
"2055 VICTORY BOULEVARD, New York, NY, 10314",Address,High,40.6126594543457,-74.1321029663086,house,place,40.6126356,-74.1320959496586
"114 CHRISTOPHER STREET, New York, NY, 10014",Address,High,40.733028411865234,-74.00530242919922,house,place,40.7331485,-74.0053648
"4619 MARATHON PARKWAY, New York, NY, 11362",Address,High,40.76701736450195,-73.73634338378906,tertiary,highway,40.7608382,-73.732102
"3501 AVENUE S, New York, NY, 11234",Address,High,40.609512,-73.932159,house,place,40.6094356,-73.9320774
"19652 NORTHERN BLVD, New York, NY, 11358",RoadBlock,Medium,40.762611389160156,-73.80462646484375,primary,highway,40.762808,-73.7547389
"7717 THIRD AVENUE, New York, NY, 11209",Address,High,40.62952423095703,-74.02828216552734,,,,
"3660 EAST TREMONT AVENUE, New York, NY, 10465",Address,High,40.82760192453861,-73.82332719862461,house,place,40.82758905,-73.8236383036476
"605 HUDSON STREET, New York, NY, 10014",Address,High,40.73740191757679,-74.00576569139957,house,place,40.73726235,-74.0060089079697
"154 MANSION AVE, New York, NY, 10308",Address,High,40.54399871826172,-74.14067077636719,house,place,40.54389585,-74.1406172355676
"1133 LEXINGTON AVENUE, New York, NY, 10075",Address,High,40.77456283569336,-73.95889282226562,house,place,40.7745571,-73.9588888473031
"9283 QUEENS BOULEVARD, New York, NY, 11374",RoadBlock,Medium,40.72753143310547,-73.85546875,trunk,highway,40.7266949,-73.8524594
"3941 QUEENS BOULEVARD, New York, NY, 11104",RoadBlock,Medium,40.7429084777832,-73.91780090332031,trunk,highway,40.7426167,-73.9156882
"3220 BROADWAY, New York, NY, 11106",Address,High,40.76111602783203,-73.92406463623047,secondary,highway,40.766292,-73.9336269
"65 WEST   54 STREET, New York, NY, 10019",Address,High,40.76213389635086,-73.97788278758526,,,,
"2414 GERRITSEN AVENUE, New York, NY, 11229",Address,High,40.598018646240234,-73.9312744140625,house,place,40.5980113,-73.93128980724
"267 SCHENECTADY AVENUE, New York, NY, 11213",Address,High,40.66947937011719,-73.9336166381836,bakery,shop,40.6693389,-73.9336226990049
"15405 ROCKAWAY BOULEVARD, New York, NY, 11434",Address,High,40.6679573059082,-73.7802734375,house,place,40.6682573030303,-73.7814445909091
"1599 WESTCHESTER AVENUE, New York, NY, 10472",Address,High,40.82923270761967,-73.87570068240166,house,place,40.8293292,-73.8757385
"917 CLINTONVILLE STREET, New York, NY, 11357",Address,High,40.793174743652344,-73.812744140625,tertiary,highway,40.7866305,-73.8099875
"314 EAST   70 STREET, New York, NY, 10021",Address,High,40.76691436767578,-73.95853424072266,,,,
"1434 RICHMOND ROAD, New York, NY, 10304",Address,High,40.59419250488281,-74.09870910644531,house,place,40.59423805,-74.0987705703881
"322 7 AVENUE, New York, NY, 10001",Address,High,40.74748611450195,-73.99357604980469,,,,
"370 PARK AVENUE, New York, NY, 10022",Address,High,40.758899,-73.973213,secondary,highway,40.7703721,-73.9642041
"114 BAYRIDGE AVENUE, New York, NY, 11220",Address,High,40.63728713989258,-74.03180694580078,,,,
"101 WEST   55 STREET, New York, NY, 10019",Address,High,40.763123631477356,-73.9782603085041,,,,
"3281 RICHMOND AVENUE, New York, NY, 10312",Address,High,40.558982,-74.168952,house,place,40.5593354166667,-74.1694159166667
"226 CHURCH AVENUE, New York, NY, 11218",Address,High,40.643375396728516,-73.9776611328125,house,place,40.64338645,-73.977606225978
"44 HENRY STREET, New York, NY, 11201",Address,High,40.699699,-73.992164,restaurant,amenity,40.6996776,-73.9920753
"210 6 AVENUE, New York, NY, 10014",Address,High,40.72717398405075,-74.00329403579235,,,,
"107 EAST   34 STREET, New York, NY, 10016",Address,High,40.746917724609375,-73.98083589971066,,,,
"236 WEST   52 STREET, New York, NY, 10019",Address,High,40.76285171508789,-73.98413848876953,,,,
"7522 3 AVENUE, New York, NY, 11209",Address,High,40.63096618652344,-74.02825927734375,,,,
"72 WEST 36th STREET, New York, NY, 10018",Address,High,40.75071334838867,-73.98651885986328,restaurant,amenity,40.7509339,-73.9862376
"515 3 AVENUE, New York, NY, 10016",Address,High,40.7459831237793,-73.97753143310547,,,,
"3707 73 STREET, New York, NY, 11372",RoadBlock,Medium,40.74876022338867,-73.8927001953125,,,,
"86 WEST    3 STREET, New York, NY, 10012",Address,High,40.729747,-73.999145,,,,
"243 EAST   58 STREET, New York, NY, 10022",Address,High,40.76035690307617,-73.96512603759766,,,,
"5804 CLARENDON ROAD, New York, NY, 11203",Address,High,40.644923374056816,-73.92158456146717,house,place,40.64468445,-73.9216438884852
"206 THOMPSON STREET, New York, NY, 10012",Address,High,40.72872295975685,-73.9993404597044,house,place,40.72860515,-73.9993187087089
"37 WEST   65 STREET, New York, NY, 10023",Address,High,40.77231019735336,-73.98036181926727,,,,
"5655 BROADWAY, New York, NY, 10463",Address,High,40.88048905134201,-73.90375256538391,house,place,40.8803571,-73.9040116
"9011 THIRD AVENUE, New York, NY, 11209",Address,High,40.62058639526367,-74.03175354003906,,,,
"6947 GRAND AVENUE, New York, NY, 11378",Address,High,40.726985931396484,-73.89408111572266,primary,highway,40.7227415,-73.9016529
"244 WEST   48 STREET, New York, NY, 10036",Address,High,40.76062774658203,-73.986572265625,,,,
"1005 2 AVENUE, New York, NY, 10022",Address,High,40.75701141357422,-73.96729278564453,,,,
"1 CITY ISLAND AVE, New York, NY, 10464",Address,High,40.83681869506836,-73.78235626220703,house,place,40.83746445,-73.7831212228926
"1621 SECOND AVENUE, New York, NY, 10028",Address,High,40.77684783935547,-73.95286560058594,,,,
"2942 WESTCHESTER AVENUE, New York, NY, 10461",Address,High,40.846689864993095,-73.83262306451797,house,place,40.8468094,-73.8322941
"372 8 AVENUE, New York, NY, 10001",Address,High,40.74871826171875,-73.99566650390625,,,,
"2716 GERRITSEN AVENUE, New York, NY, 11229",Address,High,40.59285354614258,-73.92548370361328,house,place,40.5928484,-73.9254881199927
"402 8 AVENUE, New York, NY, 10001",Address,High,40.749656677246094,-73.9949722290039,,,,
"947 2 AVENUE, New York, NY, 10022",Address,High,40.755184173583984,-73.96864318847656,,,,
"5945 STRICKLAND AVE, New York, NY, 11234",Address,High,40.608978271484375,-73.9155502319336,hospital,amenity,40.6090684,-73.9152839
"113 THOMPSON STREET, New York, NY, 10012",Address,High,40.72600173950195,-74.00196075439453,house,place,40.72598265,-74.0019284024549
"7269 KISSENA BOULEVARD, New York, NY, 11367",Address,High,40.727577209472656,-73.81233978271484,secondary,highway,40.7391597,-73.8150887
"82 COURT STREET, New York, NY, 11201",Address,High,40.691417,-73.991874,fast_food,amenity,40.69141445,-73.9918587330678
"800 7 AVENUE, New York, NY, 10019",Address,High,40.76261520385742,-73.98250579833984,,,,
"9402 SUTPHIN BOULEVARD, New York, NY, 11435",Address,High,40.69879913330078,-73.80711364746094,secondary,highway,40.7011895,-73.8078558
"127 MULBERRY STREET, New York, NY, 10013",Address,High,40.718054473400116,-73.99806037545204,house,place,40.7180694,-73.9981036
"59 WARREN STREET, New York, NY, 10007",Address,High,40.71476340293884,-74.00941215455532,bar,amenity,40.7147011,-74.0095275053287
"365 WEST   50 STREET, New York, NY, 10019",Address,High,40.763465881347656,-73.98829650878906,,,,
"94 BEDFORD AVENUE, New York, NY, 11249",Address,High,40.720645,-73.955055,house,place,40.7205714,-73.9549399
"1200 CASTLE HILL AVENUE, New York, NY, 10462",Address,High,40.832069396972656,-73.85074615478516,house,place,40.8320674,-73.8508695
"82-07 153 AVENUE, New York, NY, 11414",Address,High,40.666137635707855,-73.85193228721619,,,,
"9615 LIBERTY AVENUE, New York, NY, 11417",Address,High,40.680912017822266,-73.84261322021484,tertiary,highway,40.680416,-73.8438919
"4611 BROADWAY, New York, NY, 11103",Address,High,40.75672149658203,-73.91360473632812,secondary,highway,40.7550435,-73.9106384
"807 LEXINGTON AVENUE, New York, NY, 10065",Address,High,40.76430380344391,-73.96660208702087,secondary,highway,40.792248,-73.9462784
"825 7 AVENUE, New York, NY, 10019",Address,High,40.76314441859722,-73.98169420659542,,,,
"1617 YORK AVENUE, New York, NY, 10028",Address,High,40.775474548339844,-73.94784545898438,house,place,40.7754273,-73.9477257
"2021 7 AVENUE, New York, NY, 10027",Address,High,40.80635070800781,-73.94974517822266,,,,
"73 WEST   11 STREET, New York, NY, 10011",Address,High,40.735408782958984,-73.99772644042969,,,,
"3073 EMMONS AVENUE, New York, NY, 11235",Address,High,40.584262,-73.936714,house,place,40.5842135,-73.936704137718
"739 BROADWAY, New York, NY, 10003",Address,High,40.729944705963135,-73.99301715195179,house,place,40.7299348,-73.9931537
"21532 HILLSIDE AVENUE, New York, NY, 11427",Address,High,40.72708511352539,-73.74874877929688,primary,highway,40.705949,-73.8090009
"7720 18 AVENUE, New York, NY, 11214",Address,High,40.61192321777344,-73.99784851074219,,,,
"1619 86 STREET, New York, NY, 11214",Address,High,40.61003112792969,-74.00666046142578,,,,
"10102 103 AVENUE, New York, NY, 11417",Address,High,40.683326721191406,-73.84039306640625,,,,
"309 AMSTERDAM AVENUE, New York, NY, 10023",Address,High,40.78010940551758,-73.98017120361328,house,place,40.78011955,-73.9801974141544
"155 EAST   84 STREET, New York, NY, 10028",Address,High,40.778160095214844,-73.95590209960938,,,,
"20002 NORTHERN BOULEVARD, New York, NY, 11361",Address,High,40.75752639770508,-73.78288269042969,primary,highway,40.762808,-73.7547389
"464 6 AVENUE, New York, NY, 10011",Address,High,40.73552906513214,-73.99810262024403,,,,
"1494 SECOND AVENUE, New York, NY, 10075",Address,High,40.77237319946289,-73.95539093017578,,,,
"10932 ASCAN AVENUE, New York, NY, 11375",RoadBlock,Medium,40.71453094482422,-73.84297943115234,residential,highway,40.7145331,-73.8429824
"500 FOREST AVENUE, New York, NY, 10310",Address,High,40.63025665283203,-74.10671997070312,house,place,40.63025985,-74.106920069236
"131 WEST    3 STREET, New York, NY, 10012",Address,High,40.730937,-74.000633,,,,
"500 EAST   30 STREET, New York, NY, 10016",Address,High,40.741180419921875,-73.97223663330078,,,,
"345 COURT STREET, New York, NY, 11231",Address,High,40.682197,-73.995681,restaurant,amenity,40.6822368,-73.9957986
"80 GROVE STREET, New York, NY, 10014",Address,High,40.73331832885742,-74.00222778320312,house,place,40.733246,-74.002676
" W 79 STREET, New York, NY, 10024",RoadBlock,High,40.785560607910156,-73.98407745361328,,,,
"0 MEMORIAL ICE SKATING, New York, NY, 10314",,,,,,,,
"156 ATLANTIC AVENUE, New York, NY, 11201",Address,High,40.690063,-73.994621,restaurant,amenity,40.6901272,-73.9946122
"72 MAC DOUGAL STREET, New York, NY, 10012",Address,High,40.728206634521484,-74.00181579589844,unclassified,highway,40.732612,-73.9982779
"1215 THIRD AVENUE, New York, NY, 10021",Address,High,40.768622159957886,-73.96135702729225,,,,
"906 7 AVENUE, New York, NY, 10019",Address,High,40.765767619013786,-73.9799340069294,,,,
"401 44 DRIVE FOOT E.RIVER, New York, NY, 11101",Postcode1,Medium,40.74568176269531,-73.93859100341797,,,,
"172 THOMPSON STREET, New York, NY, 10012",Address,High,40.727736577391624,-74.00017060339451,house,place,40.72764365,-74.0000582032291
"703 MINNIEFORD AVE, New York, NY, 10464",Address,High,40.85777282714844,-73.79084777832031,house,place,40.8569208,-73.7905705818182
"203 BEACH  116 STREET, New York, NY, 11694",Address,High,40.579927414655685,-73.83742488920689,,,,
"749 LYDIG AVENUE, New York, NY, 10462",Address,High,40.85450515151024,-73.86577986180782,house,place,40.854545,-73.865913
"645 ROSSVILLE AVENUE, New York, NY, 10309",Address,High,40.54267883300781,-74.20774841308594,restaurant,amenity,40.5427957,-74.2077287
"7002 COPPER AVENUE, New York, NY, 11385",Postcode1,Medium,40.70124053955078,-73.8833999633789,,,,
"267 AMSTERDAM AVENUE, New York, NY, 10023",Address,High,40.778868198394775,-73.98136630654335,house,place,40.778756,-73.9813046
"521 THIRD AVENUE, New York, NY, 10016",Address,High,40.746150970458984,-73.97749328613281,,,,
"16402 69 AVENUE, New York, NY, 11365",Address,High,40.73286819458008,-73.80441284179688,,,,
"7303 3 AVENUE, New York, NY, 11209",Address,High,40.63261795043945,-74.02703094482422,,,,
"22813 MERRICK BOULEVARD, New York, NY, 11413",RoadBlock,Medium,40.67784881591797,-73.7456283569336,primary,highway,40.686984,-73.7749506
"823 SECOND AVENUE, New York, NY, 10017",Address,High,40.75114822387695,-73.97159576416016,,,,
"162 WEST    4 STREET, New York, NY, 10014",Address,High,40.731838,-74.001411,,,,
"200 WEST   70 STREET, New York, NY, 10023",Address,High,40.777335315942764,-73.98276776075363,,,,
"552 GRANDVIEW AVENUE, New York, NY, 11385",Address,High,40.70907211303711,-73.90705108642578,house,place,40.7090809,-73.9070374977228
"15367 HORACE HARDING EXPRESSWAY, New York, NY, 11367",Address,High,40.739521,-73.81546,trunk,highway,40.743127,-73.8362584
"2664 BROADWAY, New York, NY, 10025",Address,High,40.79798497259617,-73.96915689110756,house,place,40.7979149,-73.9690849
"10708 70 ROAD, New York, NY, 11375",RoadBlock,Medium,40.72357177734375,-73.83989715576172,,,,
"168 EAST  116 STREET, New York, NY, 10029",Address,High,40.79805374145508,-73.94100189208984,,,,
"315 SMITH STREET, New York, NY, 11231",Address,High,40.68116760253906,-73.99395751953125,house,place,40.68117955,-73.9939860450598
"1014 LONGWOOD AVENUE, New York, NY, 10459",Address,High,40.81656999886036,-73.89674127101898,house,place,40.8165797,-73.8969847
"313 AVENUE U, New York, NY, 11223",Address,High,40.597089529037476,-73.97261694073677,house,place,40.5972524,-73.9725512522056
"9310 WOODHAVEN BOULEVARD, New York, NY, 11421",Address,High,40.68818283081055,-73.8494644165039,trunk,highway,40.688114,-73.8489268
"32 EAST   10 STREET, New York, NY, 10003",Address,High,40.73222732543945,-73.99317932128906,,,,
"463 7 AVENUE, New York, NY, 10018",Address,High,40.751651,-73.989532,,,,
"7919 JAMAICA AVENUE, New York, NY, 11421",Address,High,40.692295,-73.862632,secondary,highway,40.689299,-73.8740539
"6121 FRESH POND ROAD, New York, NY, 11379",Address,High,40.71402359008789,-73.9007339477539,,,,
"1250 BROADWAY, New York, NY, 10001",Address,High,40.74792489409447,-73.98818112909794,house,place,40.747571,-73.9880181
"6967 GRAND AVENUE, New York, NY, 11378",RoadBlock,Medium,40.728271484375,-73.89128112792969,primary,highway,40.7227415,-73.9016529
"3000 EMMONS AVENUE, New York, NY, 11235",Address,High,40.58355712890625,-73.9383316040039,house,place,40.58348085,-73.938230477971
"502 HENDERSON AVE, New York, NY, 10310",Address,High,40.63788986206055,-74.10930633544922,house,place,40.6380708620952,-74.1091265606624
"709 KINGS HIGHWAY, New York, NY, 11223",Address,High,40.60650634765625,-73.96534729003906,house,place,40.6064268,-73.9653405849606
"149 BLEEKER STREET, New York, NY, 10012",Address,High,40.728458404541016,-73.99922943115234,,,,
"493 AMSTERDAM AVENUE, New York, NY, 10024",Address,High,40.78607940673828,-73.9758071899414,house,place,40.78608465,-73.9758273480821
"8512 ROOSEVELT AVENUE, New York, NY, 11372",RoadBlock,Medium,40.74734115600586,-73.88671875,secondary,highway,40.746686,-73.8929591
"97 MACDOUGAL STREET, New York, NY, 10012",Address,High,40.72958755493164,-74.0010986328125,house,place,40.7294829090909,-74.0010532727273
"12 EAST   12 STREET, New York, NY, 10003",Address,High,40.73407745361328,-73.99375915527344,,,,
"425 AMSTERDAM AVENUE, New York, NY, 10024",Address,High,40.783939361572266,-73.97738647460938,pub,amenity,40.78393775,-73.9773797267051
"6388 WOODHAVEN BOULEVARD, New York, NY, 11374",RoadBlock,Medium,40.713661193847656,-73.85974884033203,trunk,highway,40.711585,-73.859896
"4090 BOSTON POST ROAD, New York, NY, 10475",RoadBlock,Medium,40.896060943603516,-73.80574035644531,primary,highway,40.8905544,-73.8189083
"339 1 AVENUE, New York, NY, 10003",Address,High,40.734928,-73.980331,,,,
"207 WEST   36 STREET, New York, NY, 10018",Address,High,40.75245179235935,-73.98997351527214,,,,
"210 EAST 9 TH STREET, New York, NY, 10003",Address,High,40.72966766357422,-73.98884582519531,,,,
"1295 THIRD AVENUE, New York, NY, 10021",Address,High,40.771125,-73.959251,,,,
"155 EAST   52 STREET, New York, NY, 10022",Address,High,40.75753402709961,-73.9703369140625,,,,
"120 CEDAR STREET, New York, NY, 10006",Address,High,40.70960149168968,-74.01271462440491,house,place,40.7095458,-74.0126276
"4277 KATONAH AVE, New York, NY, 10470",Address,High,40.89778137207031,-73.86753845214844,house,place,40.8977976,-73.8674924773622
"1560 BROADWAY, New York, NY, 10036",Address,High,40.758594,-73.984466,house,place,40.7589916666667,-73.9851016666667
"1064 MADISON AVENUE, New York, NY, 10028",Address,High,40.77734135091305,-73.96145224571228,house,place,40.777366,-73.9616537498499
"0 LAGUARDIA AIRPORT BLDG, New York, NY, 11371",,,,,,,,
"1100 60 STREET, New York, NY, 11219",Address,High,40.631370171904564,-74.0028440952301,,,,
"158 E. 188 TH ST, New York, NY, 10468",Address,High,40.86163446307182,-73.8984552025795,,,,
"101 PARK AVENUE, New York, NY, 10013",Address,High,40.750877380371094,-73.97775268554688,,,,
"3657 KINGSBRIDGE AVENUE, New York, NY, 10463",Address,High,40.885101318359375,-73.90149688720703,house,place,40.8851043,-73.9012792
"7402 METROPOLITAN AVENUE, New York, NY, 11379",Address,High,40.712623596191406,-73.87812042236328,secondary,highway,40.712727,-73.8793429
"147 BLEECKER STREET, New York, NY, 10012",Address,High,40.72841262817383,-73.9991455078125,bar,amenity,40.7283337,-73.9992168
"762 9 AVENUE, New York, NY, 10019",Address,High,40.76408386230469,-73.98810577392578,,,,
"331 FLATBUSH AVENUE, New York, NY, 11217",Address,High,40.67791748046875,-73.97265625,house,place,40.67791045,-73.9726660894746
"541 AMSTERDAM AVENUE, New York, NY, 10024",Address,High,40.788002014160156,-73.97438049316406,house,place,40.7877497,-73.9747371
"182 WEST 58 TH STREET, New York, NY, 10019",Address,High,40.76591983437538,-73.9790066331625,,,,
"8443 164 STREET, New York, NY, 11432",Address,High,40.712833404541016,-73.8011245727539,,,,
"226 WEST 52 ND STREET, New York, NY, 10019",Address,High,40.76283663511276,-73.98364283144474,,,,
"73 ATLANTIC AVENUE, New York, NY, 11201",Address,High,40.691459,-73.997886,bar,amenity,40.6914648,-73.9978843950832
"6568 MYRTLE AVENUE, New York, NY, 11385",Address,High,40.70110321044922,-73.88810729980469,primary,highway,40.7033802,-73.8628182
"208 THOMPSON STREET, New York, NY, 10012",Address,High,40.728729248046875,-73.99910736083984,house,place,40.7286614,-73.9992182143693
"1320 SURF AVENUE, New York, NY, 11224",Address,High,40.57549439370632,-73.98190341889858,house,place,40.57530885,-73.9820168836836
"166 WEST    4 STREET, New York, NY, 10014",Address,High,40.731948,-74.001541,,,,
"227 WEST   27 STREET, New York, NY, 10001",Address,High,40.74696399271488,-73.99449102580547,,,,
"323 7 AVENUE, New York, NY, 11215",Address,High,40.667072385549545,-73.98135021328926,,,,
"4508 VERNON BOULEVARD, New York, NY, 11101",Address,High,40.74842071533203,-73.9525146484375,,,,
"544 WEST  113 STREET, New York, NY, 10025",Address,High,40.805419921875,-73.9643325805664,,,,
"635 MEEKER AVE, New York, NY, 11222",Address,High,40.722354888916016,-73.9412841796875,house,place,40.7222714,-73.9412856
"6 STUYVESANT STREET, New York, NY, 10003",Address,High,40.729854851961136,-73.98939482867718,house,place,40.7297897,-73.9893088
"80 CLARK STREET, New York, NY, 11201",Address,High,40.69745510816574,-73.99320021271706,restaurant,amenity,40.6974111,-73.9932001
"232 EAST   43 STREET, New York, NY, 10017",Address,High,40.751067101955414,-73.973198980093,,,,
"109 AVENUE A, New York, NY, 10009",Address,High,40.72607421875,-73.98388671875,house,place,40.7260087,-73.9837456
"330 LAFAYETTE STREET, New York, NY, 10012",Address,High,40.72564981877804,-73.99494297802448,restaurant,amenity,40.7251551,-73.992578
"1063 FIRST AVENUE, New York, NY, 10022",Address,High,40.75899887084961,-73.9627685546875,,,,
"650 FOREST AVENUE, New York, NY, 10310",Address,High,40.62953567504883,-74.11068725585938,house,place,40.6296506,-74.110793
"10716 70 ROAD, New York, NY, 11375",RoadBlock,Medium,40.72357177734375,-73.83989715576172,,,,
"1001 RICHMOND HILL ROAD, New York, NY, 10306",Address,High,40.57806396484375,-74.14928436279297,house,place,40.5731729975804,-74.1464934235785
"1020 86th Street, New York, NY, 11228",Address,High,40.61774656176567,-74.02008935809135,house,place,40.6176755714286,-74.0200668163265
"854 ST JOHNS PLACE, New York, NY, 11216",Address,High,40.671386,-73.949905,house,place,40.6714272,-73.9499006784313
"1861 CROPSEY AVENUE, New York, NY, 11214",Address,High,40.60188293457031,-74.00546264648438,house,place,40.6017821666667,-74.0056215
"62 7 AVENUE, New York, NY, 11217",Address,Medium,40.67557029426098,-73.97477880120277,,,,
"94 AVENUE A, New York, NY, 10009",Address,High,40.72547912597656,-73.98362731933594,house,place,40.72547635,-73.98367935
"4015 BROADWAY, New York, NY, 10032",Address,High,40.84166273474693,-73.93949635326862,pub,amenity,40.8416428,-73.9396999
"968 4 AVENUE, New York, NY, 11232",Address,High,40.65370090305805,-74.0052292495966,,,,
"32 JONES STREET, New York, NY, 10014",Address,High,40.73207572102547,-74.00219902396202,house,place,40.7317358,-74.0030475
"4033 EAST TREMONT AVENUE, New York, NY, 10465",Address,High,40.819566026329994,-73.81747931241989,house,place,40.8195920769231,-73.8174389230769
"540 PARK AVENUE, New York, NY, 10065",Address,High,40.76460647583008,-73.96935272216797,house,place,40.7644083,-73.9690397
"350 EAST   53 STREET, New York, NY, 10022",Address,High,40.75610563158989,-73.96575383841991,,,,
"941 4 AVENUE, New York, NY, 11232",Address,High,40.654056549072266,-74.00422668457031,,,,
"877 10 AVENUE, New York, NY, 10019",Address,High,40.769439,-73.98867,,,,
"253 EAST  167 STREET, New York, NY, 10456",Address,High,40.83352826535702,-73.91464099287987,,,,
"11718 QUEENS BOULEVARD, New York, NY, 11375",RoadBlock,Medium,40.720611572265625,-73.84185791015625,trunk,highway,40.7188695,-73.8376966
"113 MULBERRY STREET, New York, NY, 10013",Address,High,40.7176513671875,-73.99854278564453,house,place,40.71762735,-73.9984711952708
"8902 3 AVENUE, New York, NY, 11209",Address,High,40.621334075927734,-74.0322494506836,,,,
"62 SPRING STREET, New York, NY, 10012",Address,High,40.722203850746155,-73.9969915151596,house,place,40.7223004,-73.9973322
"8606 5 AVENUE, New York, NY, 11209",Address,High,40.62137357890606,-74.0263918787241,,,,
"268 EAST   10 STREET, New York, NY, 10009",Address,High,40.72818374633789,-73.98359680175781,,,,
"767 WASHINGTON STREET, New York, NY, 10014",Address,High,40.737449645996094,-74.00796508789062,house,place,40.7374426,-74.0080754
"4205 235 STREET, New York, NY, 11363",Address,High,40.76835250854492,-73.74839782714844,,,,
"1555 2 AVENUE, New York, NY, 10028",Address,High,40.77457809448242,-73.95450592041016,,,,
"20423 HILLSIDE AVENUE, New York, NY, 11423",RoadBlock,Medium,40.71929168701172,-73.76361846923828,primary,highway,40.706634,-73.8065889
"14958 CROSS ISLAND PARKWAY, New York, NY, 11357",Address,High,40.78681564331055,-73.81424713134766,motorway,highway,40.7863507,-73.8067336
"29 CORNELIA STREET, New York, NY, 10014",Address,High,40.731502532958984,-74.00249481201172,house,place,40.73151755,-74.0025008714504
"155 WEST   51 STREET, New York, NY, 10019",Address,High,40.761370807886124,-73.98188799619675,,,,
"69 NEW STREET, New York, NY, 10004",Address,High,40.705731734633446,-74.01233911514282,house,place,40.7056624,-74.0124036
"1412 ST JOHNS PLACE, New York, NY, 11213",Address,High,40.670573338866234,-73.93166363239288,house,place,40.6705385,-73.9316459285714
"235 EAST   84 STREET, New York, NY, 10028",Address,High,40.77712631225586,-73.95345306396484,,,,
"2073 FOREST AVENUE, New York, NY, 10303",Address,High,40.62660598754883,-74.1584243774414,house,place,40.626365,-74.1583196666667
"1825 NORTH RAILROAD AVENUE, New York, NY, 10306",Address,High,40.56517791748047,-74.12683868408203,house,place,40.5651664,-74.1268442897043
"70 7 AVENUE, New York, NY, 11217",Address,High,40.675441,-73.975135,,,,
"517 COLUMBUS AVENUE, New York, NY, 10024",Address,High,40.785737335681915,-73.9726484566927,fast_food,amenity,40.7856092,-73.9725691
"5977 BROADWAY, New York, NY, 10471",Address,High,40.88974602520466,-73.89836065471172,house,place,40.8897501,-73.8985352
"256 WEST   52 STREET, New York, NY, 10019",Address,High,40.76311492919922,-73.98475646972656,,,,
"4027 MAIN STREET, New York, NY, 11354",RoadBlock,Medium,40.763118743896484,-73.83203887939453,primary,highway,40.725992,-73.8214319
"1674 BROADWAY, New York, NY, 10019",Address,High,40.76286882162094,-73.98306347429752,house,place,40.76279,-73.9829442
"3115 VICTORY BOULEVARD, New York, NY, 10314",Address,High,40.6074333190918,-74.1630630493164,house,place,40.60730495,-74.1630363501789
"819 PENNSYLVANIA AVENUE, New York, NY, 11207",Address,High,40.65765045583248,-73.88978160917759,house,place,40.6578612,-73.8896271470149
"300 AMSTERDAM AVENUE, New York, NY, 10023",Address,High,40.7800617814064,-73.98064412176609,restaurant,amenity,40.7801389,-73.9808245
"5729 MAIN STREET, New York, NY, 11355",Address,High,40.745605,-73.825637,secondary,highway,40.760825,-73.8307509
"167 MULBERRY STREET, New York, NY, 10013",Address,High,40.71992874145508,-73.99735260009766,house,place,40.71991665,-73.9973207899925
"3 EAST   48 STREET, New York, NY, 10017",Address,High,40.757259368896484,-73.97746276855469,,,,
"20007 32 AVENUE, New York, NY, 11361",Address,High,40.77001953125,-73.78907775878906,,,,
"77 IRVING PLACE, New York, NY, 10003",Address,High,40.73690101504326,-73.98671396076679,house,place,40.7369523,-73.9867746
"269 WEST   45 STREET, New York, NY, 10036",Address,High,40.75893938541412,-73.98774594068527,,,,
"7410 3 AVENUE, New York, NY, 11209",Address,High,40.6319797039032,-74.02763776481152,,,,
"3767 JUNCTION BOULEVARD, New York, NY, 11368",RoadBlock,Medium,40.73426818847656,-73.86461639404297,secondary,highway,40.7304232,-73.8625973
"623 MANHATTAN AVENUE, New York, NY, 11222",Address,High,40.72359848022461,-73.9509506225586,bar,amenity,40.723609,-73.9509108079683
"4415 COLLEGE POINT BOULEVARD, New York, NY, 11355",Address,High,40.75337219238281,-73.83242797851562,secondary,highway,40.758993,-73.8345289
"144 SECOND AVENUE, New York, NY, 10003",Address,High,40.72895050048828,-73.98696899414062,,,,
"900 PENNSYLVANIA AVENUE, New York, NY, 11207",Address,High,40.65586471557617,-73.88906860351562,house,place,40.6558404,-73.8889647
"1916 KINGS HIGHWAY, New York, NY, 11229",Address,High,40.610164642333984,-73.95409393310547,house,place,40.6102253,-73.9541085211485
"414 WEST   42 STREET, New York, NY, 10036",Address,High,40.758506774902344,-73.9935531616211,,,,
"164 LEXINGTON AVENUE, New York, NY, 10016",Address,High,40.744163513183594,-73.98165130615234,secondary,highway,40.7756382,-73.9584017
"25420 HILLSIDE AVENUE, New York, NY, 11004",RoadBlock,Medium,40.73733139038086,-73.70832061767578,primary,highway,40.73417,-73.7230474
"2169 STEINWAY STREET, New York, NY, 11105",Address,High,40.77304458618164,-73.9053955078125,secondary,highway,40.7612614,-73.9171494
"6408 FT HAMILTON PARKWAY, New York, NY, 11219",Address,High,40.63112258911133,-74.009033203125,house,place,40.6311011836735,-74.0086918571429
"7721 3 AVENUE, New York, NY, 11209",Address,High,40.629428,-74.028327,,,,
"1571 RICHMOND ROAD, New York, NY, 10304",Address,High,40.591243743896484,-74.10125732421875,house,place,40.59121325,-74.101263323017
"178 2 AVENUE, New York, NY, 10003",Address,High,40.730472564697266,-73.98590087890625,,,,
"733 WASHINGTON STREET, New York, NY, 10014",Address,High,40.73632501065731,-74.00824137032032,house,place,40.7363112,-74.0081723
"238 EAST    9 STREET, New York, NY, 10003",Address,High,40.72932434082031,-73.9878921508789,,,,
"991 FIRST AVENUE, New York, NY, 10022",Address,High,40.75666822493076,-73.96418809890747,,,,
"200 5 AVENUE, New York, NY, 11217",Address,High,40.676776,-73.980484,,,,
"1589 SECOND AVENUE, New York, NY, 10028",Address,High,40.775691986083984,-73.95368957519531,,,,
"361 WEST   46 STREET, New York, NY, 10036",Address,High,40.760894,-73.989974,,,,
"17101 NORTHERN BOULEVARD, New York, NY, 11358",RoadBlock,Medium,40.762611389160156,-73.80462646484375,primary,highway,40.762808,-73.7547389
"1305 MADISON AVENUE, New York, NY, 10128",Address,High,40.78490447998047,-73.95553588867188,house,place,40.78489945,-73.9555402897215
"19 EAST   49 STREET, New York, NY, 10017",Address,High,40.75762176513672,-73.97639465332031,,,,
"2285 31 STREET, New York, NY, 11105",RoadBlock,Medium,40.779720306396484,-73.90631866455078,,,,
"3371 EASTCHESTER ROAD, New York, NY, 10469",Address,High,40.876182556152344,-73.84627532958984,house,place,40.8763735,-73.8464103136361
"378 8 AVENUE, New York, NY, 10001",Address,High,40.74885940551758,-73.99555969238281,,,,
"69 LAFAYETTE AVENUE, New York, NY, 11217",Address,High,40.68732,-73.975784,restaurant,amenity,40.6872308,-73.9757452
"220 CADMAN PLAZA WEST, New York, NY, 11201",Address,High,40.69767974317074,-73.99149902164936,restaurant,amenity,40.6980042,-73.9916267
"132 EAST   39 STREET, New York, NY, 10016",Address,High,40.749433636665344,-73.97730141878128,,,,
"829-831 7 AVENUE, New York, NY, 10019",RoadBlock,Medium,40.76620101928711,-73.97955322265625,,,,
"9404 FOURTH AVENUE, New York, NY, 11209",Address,High,40.61668014526367,-74.03121185302734,,,,
"15 WESTCHESTER SQUARE, New York, NY, 10461",Address,High,40.84029006958008,-73.84369659423828,secondary,highway,40.840505,-73.8433039
"921 RICHMOND AVENUE, New York, NY, 10314",Address,High,40.624752044677734,-74.14849853515625,house,place,40.62476725,-74.1485607013917
"1226 SECOND AVENUE, New York, NY, 10065",Address,High,40.763832092285156,-73.96159362792969,,,,
"23 NELSON AVENUE, New York, NY, 10308",Address,High,40.549354925751686,-74.15062375366688,house,place,40.5494165,-74.1506001
"3636 BOSTON ROAD, New York, NY, 10469",Address,High,40.87961934506893,-73.8423179090023,house,place,40.8795942,-73.8422923333333
"4357 AMBOY ROAD, New York, NY, 10312",Address,High,40.545469745993614,-74.16042655706406,house,place,40.5453748203332,-74.1606563084888
"3116 BROADWAY, New York, NY, 11106",Address,High,40.7614860534668,-73.92494201660156,secondary,highway,40.766292,-73.9336269
"3946 SKILLMAN AVENUE, New York, NY, 11104",RoadBlock,Medium,40.7463493347168,-73.9161605834961,residential,highway,40.746999,-73.9217239
"1539 UNIONPORT ROAD, New York, NY, 10462",Address,High,40.83713918924332,-73.85802961885929,house,place,40.8368948479937,-73.8577306604885
"359 SEVENTH AVENUE, New York, NY, 11215",Address,High,40.66585159301758,-73.98210906982422,,,,
"371 7 AVENUE, New York, NY, 10001",Address,High,40.74870681762695,-73.99166107177734,,,,
"5802 MYRTLE AVENUE, New York, NY, 11385",RoadBlock,Medium,40.7032585144043,-73.86473083496094,primary,highway,40.7033802,-73.8628182
"22205 56 AVENUE, New York, NY, 11364",RoadBlock,Medium,40.75490188598633,-73.75245666503906,,,,
"51 WEST   52 STREET, New York, NY, 10019",Address,High,40.76052188873291,-73.97790290415287,,,,
"110 WEST THIRD STREET, New York, NY, 10012",Address,High,40.7302625477314,-73.99988628923893,,,,
"108 7 AVENUE SOUTH, New York, NY, 10014",Address,High,40.73344039916992,-74.00316619873047,,,,
"15403 CROSS ISLAND PARKWAY, New York, NY, 11357",RoadBlock,Medium,40.786251068115234,-73.79724884033203,motorway,highway,40.7863507,-73.8067336
"1002 FLUSHING AVENUE, New York, NY, 11206",Address,High,40.7036018371582,-73.93109130859375,house,place,40.70359995,-73.931105438352
"2020 BROADWAY, New York, NY, 10023",Address,High,40.776390075683594,-73.98175811767578,house,place,40.7764202,-73.9818555
"2671 BROADWAY, New York, NY, 10025",Address,High,40.79826593399048,-73.9693533629179,house,place,40.7982935,-73.9694659
"281 WEST   12 STREET, New York, NY, 10014",Address,High,40.737678,-74.003753,,,,
"21317 NORTHERN BOULEVARD, New York, NY, 11361",Address,High,40.76049041748047,-73.76982116699219,primary,highway,40.762808,-73.7547389
"7818 5 AVENUE, New York, NY, 11209",Address,High,40.626937,-74.023979,,,,
"35 WEST   20 STREET, New York, NY, 10011",Address,High,40.74073,-73.992889,,,,
"146 WEST   57 STREET, New York, NY, 10019",Address,High,40.76471710205078,-73.97928619384766,,,,
"3580 BRONXWOOD AVENUE, New York, NY, 10469",Address,High,40.8774299621582,-73.85916137695312,house,place,40.8775123,-73.8591774
"5024 SKILLMAN AVENUE, New York, NY, 11377",RoadBlock,Medium,40.74591827392578,-73.9124526977539,,,,
"5601 MYRTLE AVENUE, New York, NY, 11385",Address,High,40.70033264160156,-73.90613555908203,primary,highway,40.7033802,-73.8628182
"141 WEST   38 STREET, New York, NY, 10018",Address,High,40.75302176177502,-73.98747839033604,,,,
"3101 ATLANTIC AVENUE, New York, NY, 11208",Address,High,40.679290771484375,-73.88114166259766,house,place,40.6792246,-73.8812360111717
"783 9 AVENUE, New York, NY, 10019",Address,High,40.76502990722656,-73.98822021484375,,,,
"244 EAST   53 STREET, New York, NY, 10022",Address,High,40.7568244934082,-73.9678955078125,,,,
"110 AVENUE OF THE AMERICAS, New York, NY, 10013",Address,High,40.723678,-74.004364,house,place,40.72372,-74.004637
"1396 THIRD AVENUE, New York, NY, 10075",Address,High,40.77457197010517,-73.95715065300465,,,,
"8707 ROOSEVELT AVENUE, New York, NY, 11372",RoadBlock,Medium,40.74734115600586,-73.88671875,secondary,highway,40.746686,-73.8929591
"138 MULBERRY STREET, New York, NY, 10013",Address,High,40.718569457530975,-73.99760842323303,house,place,40.7186103,-73.9975423
"1677 BRUCKNER BOULEVARD, New York, NY, 10472",Address,High,40.825199127197266,-73.87113952636719,house,place,40.825008,-73.8710708
"107 WEST   17 STREET, New York, NY, 10011",Address,High,40.73966598510742,-73.9958267211914,,,,
"550 EAST FORDHAM ROAD, New York, NY, 10458",Address,High,40.85882568359375,-73.88655853271484,house,place,40.85884165,-73.8865064512796
"14 EAST   23 STREET, New York, NY, 10010",Address,High,40.74073028564453,-73.98839569091797,,,,
"280 WATCHOGUE ROAD, New York, NY, 10314",Address,High,40.615943908691406,-74.13872528076172,house,place,40.616061,-74.1386345
"145 BLEECKER STREET, New York, NY, 10012",Address,High,40.728370666503906,-73.99906158447266,house,place,40.72834765,-73.9990813328741
"432 COLUMBUS AVENUE, New York, NY, 10024",Address,High,40.78305043280125,-73.97475130856037,restaurant,amenity,40.7832034,-73.974793
"201 WEST   83 STREET, New York, NY, 10024",Address,High,40.78584596514702,-73.97656984627247,,,,
"5189A BROADWAY, New York, NY, 10463",Address,High,40.874481573700905,-73.9100081473589,primary,highway,40.88589,-73.9002634
"975979 FIRST AVENUE, New York, NY, 10022",RoadBlock,Medium,40.75994873046875,-73.96173095703125,,,,
"1357 NOSTRAND AVENUE, New York, NY, 11226",Address,High,40.65356209874153,-73.94980944693089,house,place,40.6536641,-73.9497153
"772 EAST  149 STREET, New York, NY, 10455",Address,High,40.812843069434166,-73.9074506610632,,,,
"881 EAST  134 STREET, New York, NY, 10454",Address,High,40.800270080566406,-73.9100570678711,,,,
"13611 41 AVENUE, New York, NY, 11355",RoadBlock,Medium,40.761470794677734,-73.81807708740234,,,,
"1258 BAY STREET, New York, NY, 10305",Address,High,40.61244583129883,-74.06525421142578,house,place,40.6124677,-74.0652151131048
"900 7 AVENUE, New York, NY, 10106",Address,High,40.76543167233467,-73.980178758502,,,,
"842484 20 -3RD AVENUE, New York, NY, 11209",RoadBlock,Medium,40.71221160888672,-73.7571792602539,,,,
"4307 18 AVENUE, New York, NY, 11218",Address,High,40.630916595458984,-73.97615051269531,,,,
"614 9 AVENUE, New York, NY, 10036",Address,High,40.759395360946655,-73.99185910820961,,,,
"182 8 AVENUE, New York, NY, 10011",Address,High,40.743013098835945,-74.00008343160152,,,,
"548 LA GUARDIA PLACE, New York, NY, 10012",Address,High,40.729068756103516,-73.9983901977539,,,,
"4083 BROADWAY, New York, NY, 10032",Address,High,40.844177305698395,-73.9390229433775,house,place,40.8442106,-73.9391684
"1105 LEXINGTON AVENUE, New York, NY, 10075",Address,High,40.77372360229492,-73.95950317382812,house,place,40.77372665,-73.9595064590949
"47 BROADWAY @ TRINITY PL, New York, NY, 10006",Address,High,40.7073900103569,-74.01315048336983,,,,
"2140 WESTCHESTER AVENUE, New York, NY, 10462",Address,High,40.83400368690491,-73.85311380028725,house,place,40.833916,-73.853617
"1239 AMSTERDAM AVENUE, New York, NY, 10027",Address,High,40.80986849963665,-73.95875729620457,house,place,40.809872,-73.958702
"200 VARICK STREET, New York, NY, 10014",Address,High,40.72825622558594,-74.00479125976562,bank,amenity,40.7280055,-74.0051642
"50 WEST   77 STREET, New York, NY, 10024",Address,High,40.78003831207752,-73.97502087056637,,,,
"16 NO MOORE STREET, New York, NY, 10013",Address,High,40.719619,-74.007049,,,,
"532 9 AVENUE, New York, NY, 10018",Address,High,40.75667953491211,-73.9935073852539,,,,
"2714 BRIDGE PLAZA SOUTH, New York, NY, 11101",Address,High,40.749778747558594,-73.93940734863281,,,,
"1665 METROPOLITAN AVENUE, New York, NY, 10462",Address,High,40.84060125052929,-73.8553286343813,house,place,40.84061725,-73.85489835
"4814 13 AVENUE, New York, NY, 11219",Address,High,40.63543701171875,-73.99209594726562,,,,
"3663 BOSTON ROAD, New York, NY, 10466",Address,High,40.880474,-73.841918,house,place,40.8803001,-73.8419173791633
"604 5 AVENUE, New York, NY, 10020",Address,High,40.75777053833008,-73.9781723022461,,,,
"300 EAST   12 STREET, New York, NY, 10003",Address,High,40.73091432452202,-73.98578055202961,,,,
"519 HUDSON STREET, New York, NY, 10014",Address,High,40.73392868041992,-74.0066146850586,house,place,40.7338297,-74.0064565
"4946 BROADWAY, New York, NY, 10034",Address,High,40.867511,-73.920738,house,place,40.8677383529412,-73.9207512352941
"152 LAWRENCE STREET, New York, NY, 11201",Address,High,40.69183386862278,-73.98631900548935,house,place,40.6917729428571,-73.9861854428571
"510 WILLIS AVENUE, New York, NY, 10455",Address,High,40.81517390906811,-73.9184296131134,house,place,40.8151154,-73.9182672
"2859 BROADWAY, New York, NY, 10025",Address,High,40.8047716319561,-73.96645925939083,fast_food,amenity,40.8048378,-73.9665667
"71 BROADWAY, New York, NY, 10006",Address,High,40.70736654102802,-74.01209503412247,house,place,40.7073636,-74.0121976
"4005 EAST TREMONT AVENUE, New York, NY, 10465",Address,High,40.82026407122612,-73.81788969039917,house,place,40.8203825,-73.8178027
"732 AMSTERDAM AVENUE, New York, NY, 10025",Address,High,40.793975830078125,-73.97080993652344,bar,amenity,40.79395795,-73.9707824470803
"111113 GREENWICH AVENUE, New York, NY, 10014",RoadBlock,Medium,40.735931396484375,-74.00071716308594,secondary,highway,40.7342309,-73.9997136
"6827 MYRTLE AVENUE, New York, NY, 11385",Address,High,40.70191955566406,-73.8836669921875,primary,highway,40.7033802,-73.8628182
"6 EAST   44 STREET, New York, NY, 10017",Address,High,40.754564702510834,-73.97953301668167,,,,
"3023 CHURCH AVENUE, New York, NY, 11226",Address,High,40.65101623535156,-73.94874572753906,house,place,40.6509758,-73.9487393
"1090 MADISON AVENUE, New York, NY, 10028",Address,High,40.778412222862244,-73.96066568791866,house,place,40.7781891,-73.9609357
"584 COLUMBUS AVENUE, New York, NY, 10024",Address,High,40.78801855444908,-73.97112429141998,restaurant,amenity,40.7880687,-73.9712918
"25 AVENUE A, New York, NY, 10009",Address,High,40.72300720214844,-73.98604583740234,house,place,40.7229662,-73.9859591
"969 LEXINGTON AVENUE, New York, NY, 10021",Address,High,40.769256591796875,-73.96275329589844,house,place,40.769254,-73.962748017332
"80 MONTAGUE STREET, New York, NY, 11201",Address,High,40.695102,-73.996269,restaurant,amenity,40.69511115,-73.9962591779533
"122 EAST   17 STREET, New York, NY, 10003",Address,High,40.73594279587269,-73.98766346275806,,,,
"8822 3 AVENUE, New York, NY, 11209",Address,High,40.621589,-74.032127,,,,
"132 SECOND AVENUE, New York, NY, 10003",Address,High,40.72861862182617,-73.9873275756836,,,,
"313 WEST   46 STREET, New York, NY, 10036",Address,High,40.760299,-73.988563,,,,
"113 RIVINGTON STREET, New York, NY, 10002",Address,High,40.71976852416992,-73.98786926269531,house,place,40.7197733,-73.9878608633938
"80 WEST   40 STREET, New York, NY, 10018",Address,High,40.753378495574,-73.98476734757423,,,,
"240 EAST    9 STREET, New York, NY, 10003",Address,High,40.72926330566406,-73.98779296875,,,,
"2214 BARTOW AVE, New York, NY, 10475",Address,High,40.86887374520302,-73.82331177592278,house,place,40.8688351818182,-73.8235831212121
"819 9 AVENUE, New York, NY, 10019",Address,High,40.766265869140625,-73.98726654052734,,,,
"2541 BROADWAY, New York, NY, 11106",Address,Medium,40.7943000793457,-73.97254943847656,secondary,highway,40.766292,-73.9336269
"176 7 AVENUE SOUTH, New York, NY, 10014",Address,High,40.735942125320435,-74.00153584778309,,,,
"945 PENNSYLVANIA AVENUE, New York, NY, 11207",Address,High,40.65526060760021,-73.88798587024212,house,place,40.6553326619718,-73.8880715070423
"903 EIGHTH AVENUE, New York, NY, 10019",Address,High,40.764571353793144,-73.98451052606106,,,,
"20806 08 CROSSISLAND PW, New York, NY, 11360",Postcode1,Medium,40.780555725097656,-73.78215789794922,,,,
"6448 108 STREET, New York, NY, 11375",RoadBlock,Medium,40.73643112182617,-73.85138702392578,,,,
"2880 BROADWAY, New York, NY, 10025",Address,High,40.80548,-73.965248,restaurant,amenity,40.8054303,-73.9654035
"9 EAST   16 STREET, New York, NY, 10003",Address,High,40.737152099609375,-73.99168395996094,,,,
"2119 GRAND CONCOURSE, New York, NY, 10453",Address,High,40.85426039993763,-73.902418166399,house,place,40.8545061,-73.9023361
"236 EAST   58 STREET, New York, NY, 10022",Address,High,40.76052390038967,-73.96620444953442,,,,
"1265 3 AVENUE, New York, NY, 10021",Address,High,40.770190581679344,-73.96020770072937,,,,
"3938 EAST TREMONT AVENUE, New York, NY, 10465",Address,High,40.821292,-73.818946,house,place,40.82118605,-73.8188474662363
"4702 GREENPOINT AVENUE, New York, NY, 11104",Address,High,40.7423095703125,-73.91776275634766,primary,highway,40.736867,-73.9314798
"3902 BELL BOULEVARD, New York, NY, 11361",RoadBlock,Medium,40.764259338378906,-73.77133178710938,tertiary,highway,40.788881,-73.7860775
"7001 AMBOY ROAD, New York, NY, 10307",Address,High,40.516326904296875,-74.23419189453125,house,place,40.5160051960784,-74.2334291568627
"5526 69 STREET, New York, NY, 11378",Address,High,40.726985931396484,-73.89564514160156,,,,
"330 EAST   53 STREET, New York, NY, 10022",Address,High,40.75605010986328,-73.96607208251953,,,,
"412 KENT AVENUE, New York, NY, 11249",Address,High,40.710363909602165,-73.96861910820007,house,place,40.7104858,-73.968632
"30 BROAD STREET, New York, NY, 10004",Address,High,40.706275939941406,-74.01165008544922,cafe,amenity,40.7062033,-74.011905
"7204 AUSTIN STREET, New York, NY, 11375",Address,High,40.71906280517578,-73.84256744384766,residential,highway,40.720164,-73.8447889
"416 BEACH  116 STREET, New York, NY, 11694",Address,High,40.581256449222565,-73.83788354694843,,,,
"56 HESTER STREET, New York, NY, 10002",Address,High,40.715675,-73.990783,house,place,40.71573885,-73.9908146561244
"84 COURT STREET, New York, NY, 11201",Address,High,40.691356,-73.991905,house,place,40.6913535,-73.9918869746247
"20503 LINDEN BOULEVARD, New York, NY, 11412",RoadBlock,Medium,40.694210052490234,-73.75306701660156,house,place,40.6957430816326,-73.7472288265306
"51 SPRING STREET, New York, NY, 10012",Address,High,40.72212070226669,-73.99655163288116,house,place,40.7221019,-73.9964217
"323 EAST   79 STREET, New York, NY, 10075",Address,High,40.77308654785156,-73.9537124633789,,,,
"7205 AUSTIN STREET, New York, NY, 11375",RoadBlock,Medium,40.71390914916992,-73.8345718383789,residential,highway,40.720164,-73.8447889
"3819 69 STREET, New York, NY, 11377",Address,High,40.74663543701172,-73.8960952758789,,,,
"2483 BROADWAY, New York, NY, 10025",Address,High,40.79238049685955,-73.9736408740282,primary,highway,40.7908742,-73.9746796
"244 3 AVENUE, New York, NY, 10010",Address,High,40.73710151016712,-73.98447431623936,,,,
"100 SECOND AVENUE, New York, NY, 10003",Address,High,40.72711944580078,-73.98834991455078,,,,
"6443 108 STREET, New York, NY, 11375",RoadBlock,Medium,40.73643112182617,-73.85138702392578,,,,
"1215 1 AVENUE, New York, NY, 10065",Address,High,40.76378345489502,-73.95900137722492,,,,
"3938 BELL BOULEVARD, New York, NY, 11361",Address,High,40.76422882080078,-73.77162170410156,tertiary,highway,40.788881,-73.7860775
"737 THROGS NECK EXPRESSWAY, New York, NY, 10465",Address,High,40.82904815673828,-73.81982421875,house,place,40.8287266145833,-73.8186244270833
"1345 AMSTERDAM AVENUE, New York, NY, 10027",Address,High,40.81358337402344,-73.95580291748047,house,place,40.81353385,-73.9558752772281
"287 NEWDORP LN, New York, NY, 10306",Address,High,40.57213358581066,-74.11275163292885,,,,
"26 VESEY STREET, New York, NY, 10007",Address,High,40.712100982666016,-74.00970458984375,restaurant,amenity,40.7120174,-74.009779
"463 MYRTLE AVENUE, New York, NY, 11205",Address,High,40.693565368652344,-73.96674346923828,house,place,40.69354475,-73.9667380975942
"1384 BAY STREET, New York, NY, 10305",Address,High,40.60984343290329,-74.06306706368923,house,place,40.6098126,-74.0631391
"53 WEST   35 STREET, New York, NY, 10001",Address,High,40.749851390719414,-73.98575574159622,,,,
"11011 101 AVENUE, New York, NY, 11419",Address,High,40.68812561035156,-73.83336639404297,,,,
"1701 PITKIN AVENUE, New York, NY, 11212",Address,High,40.66997528076172,-73.91046142578125,house,place,40.66996405,-73.9104592561767
"11211 SPRINGFIELD BOULEVARD, New York, NY, 11429",Address,High,40.7052116394043,-73.7394790649414,primary,highway,40.715656,-73.7355349
"8414 ASTORIA BOULEVARD, New York, NY, 11370",RoadBlock,Medium,40.76512145996094,-73.88729858398438,primary,highway,40.7648528,-73.8866287
"347478 EAST TREMONT AVENUE, New York, NY, 10465",RoadBlock,Medium,40.82844161987305,-73.82412719726562,secondary,highway,40.821855,-73.8188889
"4716 BROADWAY, New York, NY, 10040",Address,High,40.864537954330444,-73.92898812890053,pub,amenity,40.864409,-73.9288983
"95 EAST    3 STREET, New York, NY, 10003",Address,High,40.7247418910265,-73.98776136338711,,,,
"1300 HYLAN BOULEVARD, New York, NY, 10305",Address,High,40.596492767333984,-74.08497619628906,house,place,40.5964865,-74.0851325507025
"336 LEXINGTON AVENUE, New York, NY, 10016",Address,High,40.749786376953125,-73.97756958007812,secondary,highway,40.7756382,-73.9584017
"7604 ROOSEVELT AVENUE, New York, NY, 11372",RoadBlock,Medium,40.74734115600586,-73.88671875,secondary,highway,40.746686,-73.8929591
"569 THIRD AVENUE, New York, NY, 10016",Address,High,40.74782180786133,-73.9761734008789,,,,
"2512 STEINWAY STREET, New York, NY, 11103",Address,High,40.76773452758789,-73.9122314453125,secondary,highway,40.7612614,-73.9171494
"1394 THIRD AVENUE, New York, NY, 10075",Address,High,40.77467346191406,-73.95735168457031,,,,
"87 STUYVESANT PLACE, New York, NY, 10301",Address,High,40.64386121928692,-74.0775315463543,house,place,40.6440066,-74.0776034
"216 EAST   53 STREET, New York, NY, 10022",Address,High,40.7572135925293,-73.9687728881836,,,,
"525 EAST   71 STREET, New York, NY, 10021",Address,High,40.7658576965332,-73.95247650146484,,,,
"221 WEST   38 STREET, New York, NY, 10018",Address,High,40.754058837890625,-73.98949432373047,,,,
"424 WEST   43 STREET, New York, NY, 10036",Address,High,40.75938865542412,-73.9929474145174,,,,
"103 WEST   72 STREET, New York, NY, 10023",Address,High,40.777801513671875,-73.97895812988281,,,,
"863 9 AVENUE, New York, NY, 10019",Address,High,40.767608642578125,-73.98652648925781,,,,
"8505 21 AVENUE, New York, NY, 11214",Address,High,40.603599548339844,-73.995361328125,,,,
"1564 BROADWAY, New York, NY, 10036",Address,High,40.75893469154835,-73.98476734757423,theatre,amenity,40.758894,-73.9846754
"13217 LIBERTY AVENUE, New York, NY, 11419",Address,High,40.69103240966797,-73.81369018554688,tertiary,highway,40.673027,-73.9057559
"249-14 HORACE HARDING EXPRESSWAY, New York, NY, 11362",Address,High,40.76045349240303,-73.73133949935436,house,place,40.7606341,-73.7308949
"500 WEST  207 STREET, New York, NY, 10034",Address,High,40.864280700683594,-73.91943359375,,,,
"42 WEST   44 STREET, New York, NY, 10036",Address,High,40.7553244382143,-73.98134082555771,,,,
"476 76 STREET, New York, NY, 11209",Address,High,40.62876510620117,-74.02352142333984,,,,
"1381 MADISON AVENUE, New York, NY, 10029",Address,High,40.78732855618,-73.95402118563652,house,place,40.7874758,-73.9537915
"8802 LITTLE NECK PARKWAY, New York, NY, 11001",Address,High,40.72794723510742,-73.71089935302734,residential,highway,40.7528068,-73.7215787
"2040 EASTCHESTER ROAD, New York, NY, 10461",Address,High,40.854347229003906,-73.84325408935547,house,place,40.8544025,-73.8433918
"0 INTAIRP ARVL BLDG, New York, NY, 11430",Postcode1,Medium,40.6470832824707,-73.7861328125,,,,
"15 BEEKMAN STREET, New York, NY, 10038",Address,High,40.71100026369095,-74.00631487369537,pub,amenity,40.7109116,-74.0062842
"5811 WOODSIDE AVENUE, New York, NY, 11377",Address,High,40.74571990966797,-73.90581512451172,tertiary,highway,40.7428884,-73.8965232
"1302 MADISON AVENUE, New York, NY, 10128",Address,High,40.785011291503906,-73.95608520507812,house,place,40.7850241,-73.9561226291001
"152 7 AVENUE, New York, NY, 11215",Address,High,40.67258,-73.977165,,,,
"108 GREENWICH AVENUE, New York, NY, 10011",Address,High,40.73833666741848,-74.00207966566086,house,place,40.7382472,-74.0018941
"1310 BROADWAY, New York, NY, 11221",Address,High,40.690330505371094,-73.92400360107422,house,place,40.69037005,-73.9239843338279
"85 AVENUE A, New York, NY, 10009",Address,High,40.725315,-73.984436,house,place,40.7253267,-73.9844466549587
"85 BRUCKNER BOULEVARD, New York, NY, 10454",Address,High,40.80646896362305,-73.92554473876953,fast_food,amenity,40.8063321,-73.9256662
"809 6 AVENUE, New York, NY, 10001",Address,High,40.74585624039173,-73.99071782827377,,,,
"322 WEST   46 STREET, New York, NY, 10036",Address,High,40.760002,-73.989021,,,,
"1551 2 AVENUE, New York, NY, 10028",Address,High,40.77450180053711,-73.95462036132812,,,,
"8802 NORTHERN BOULEVARD, New York, NY, 11372",RoadBlock,Medium,40.7552490234375,-73.8881607055664,primary,highway,40.7543289,-73.897043
"501 LEXINGTON AVENUE, New York, NY, 10017",Address,High,40.75473403930664,-73.97335815429688,secondary,highway,40.7756382,-73.9584017
"25402 ROCKAWAY BOULEVARD, New York, NY, 11422",RoadBlock,Medium,40.6356315612793,-73.74011993408203,trunk,highway,40.638181,-73.7410845
"151 SIGNS ROAD, New York, NY, 10314",Address,High,40.6037483215332,-74.1690673828125,house,place,40.6028056,-74.1687364384755
"139 NEW DORP LANE, New York, NY, 10306",Address,High,40.57383346557617,-74.11557006835938,house,place,40.5739177017544,-74.116058
"145 WEST   57 STREET, New York, NY, 10019",Address,High,40.7652587890625,-73.97867584228516,,,,
"1026 FIRST AVENUE, New York, NY, 10022",Address,High,40.75782012939453,-73.962890625,,,,
"389 8 AVENUE, New York, NY, 10001",Address,High,40.74938201904297,-73.995849609375,,,,
"3850 RICHMOND AVENUE, New York, NY, 10312",Address,High,40.54403409361839,-74.16507549583912,house,place,40.543915,-74.1651214
"343 WEST BROADWAY, New York, NY, 10013",Address,High,40.72252035140991,-74.00357902050018,house,place,40.7225864,-74.003467
"200 EAST   81 STREET, New York, NY, 10028",Address,High,40.775628089904785,-73.95652703940868,,,,
"2468 GRAND CONCOURSE, New York, NY, 10458",Address,High,40.86159557104111,-73.89734074473381,trunk,highway,40.8772602,-73.8851416
"191 CENTRE STREET, New York, NY, 10013",Address,High,40.718582198023796,-73.99956844747066,house,place,40.718678,-73.9995953
"205 WEST   38 STREET, New York, NY, 10018",Address,High,40.75383377075195,-73.9889907836914,,,,
"4018 MAIN STREET, New York, NY, 11354",Address,High,40.758998,-73.830276,primary,highway,40.725992,-73.8214319
"537 PARK AVENUE, New York, NY, 11205",Address,High,40.697204,-73.954925,house,place,40.6970881,-73.9548986
"1919 HYLAN BOULEVARD, New York, NY, 10305",Address,High,40.582984924316406,-74.0970458984375,house,place,40.5828716,-74.0967526
"2788 BROADWAY, New York, NY, 10025",Address,High,40.802516,-73.967285,restaurant,amenity,40.8024597,-73.9673697441467
"7002 34 AVENUE, New York, NY, 11372",Address,High,40.75217056274414,-73.89582824707031,,,,
"333 EAST   86 STREET, New York, NY, 10028",Address,High,40.777591,-73.950332,,,,
"8777 PARSONS BOULEVARD, New York, NY, 11432",Address,High,40.70730972290039,-73.80217742919922,tertiary,highway,40.7102323,-73.8055778
"252 WEST   14 STREET, New York, NY, 10011",Address,High,40.73936080932617,-74.00222778320312,,,,
"253 WEST   11 STREET, New York, NY, 10014",Address,High,40.73634719848633,-74.00346374511719,,,,
"438 HUDSON STREET, New York, NY, 10014",Address,High,40.73108062148094,-74.00665819644928,house,place,40.730814,-74.00665
"544 LORIMER STREET, New York, NY, 11211",Address,High,40.713128596544266,-73.94917041063309,house,place,40.7132133,-73.9491044
"135 AVENUE A, New York, NY, 10009",Address,High,40.72714614868164,-73.9831314086914,house,place,40.7270494,-73.9829922
"10 WEST    4 STREET, New York, NY, 10036",Address,High,40.728610306978226,-73.99477332830429,,,,
"11 WEST   60 STREET, New York, NY, 10023",Address,High,40.76912306249142,-73.98252367973328,,,,
"3910 103 STREET, New York, NY, 11368",Address,High,40.750244140625,-73.86316680908203,,,,
"396 THIRD AVENUE, New York, NY, 10016",Address,High,40.74223709106445,-73.98099517822266,,,,
"7112 AVENUE U, New York, NY, 11234",Address,High,40.6198616027832,-73.90690612792969,house,place,40.6198614,-73.9069067271907
"15517 NORTHERN BOULEVARD, New York, NY, 11354",RoadBlock,Medium,40.764320373535156,-73.82620239257812,primary,highway,40.7633488,-73.8298749
"86 UNIVERSITY PLACE, New York, NY, 10003",Address,High,40.73369598388672,-73.99336242675781,house,place,40.73368435,-73.9933499796774
"287 3 AVENUE, New York, NY, 10010",Address,High,40.738250732421875,-73.98321533203125,,,,
"465 WEST   51 STREET, New York, NY, 10019",Address,High,40.76491266489029,-73.99026721715927,,,,
"110 VARICK STREET, New York, NY, 10013",Address,High,40.724519938230515,-74.00590784847736,house,place,40.7245245,-74.0057808
"273 BRIGHTON BEACH AVE, New York, NY, 11235",Address,High,40.577178955078125,-73.96487426757812,restaurant,amenity,40.5770621,-73.9648578
"8214 37 AVENUE, New York, NY, 11372",RoadBlock,Medium,40.750431060791016,-73.8778076171875,,,,
"8655 QUEENS BOULEVARD, New York, NY, 11373",Address,High,40.73623275756836,-73.875732421875,trunk,highway,40.7352027,-73.8753095
"40 EAST   43 STREET, New York, NY, 10017",Address,High,40.75333759188652,-73.97856272757053,,,,
"369 JAY STREET, New York, NY, 11201",Address,High,40.692626,-73.986976,house,place,40.6927123333333,-73.9871666666667
"201 EAST   61 STREET, New York, NY, 10065",Address,High,40.76278232038021,-73.96548293530941,,,,
"7811 ROOSEVELT AVENUE, New York, NY, 11372",Address,High,40.747535705566406,-73.8871841430664,secondary,highway,40.746686,-73.8929591
"9215 149 STREET, New York, NY, 11435",RoadBlock,Medium,40.69929122924805,-73.80406951904297,,,,
"2536 BROADWAY, New York, NY, 10025",Address,High,40.79372,-73.971954,house,place,40.7937863333333,-73.9722993333333
"85 4 AVENUE, New York, NY, 10003",Address,High,40.73150634765625,-73.98991394042969,,,,
"404 CHURCH AVENUE, New York, NY, 11218",Address,High,40.64405366778374,-73.97638276219368,house,place,40.6439254,-73.9764227
"260 COURT STREET, New York, NY, 11231",RoadBlock,Medium,40.747100830078125,-73.71190643310547,house,place,40.6851625,-73.9947117
"19630 NORTHERN BOULEVARD, New York, NY, 11358",Address,High,40.75754928588867,-73.78450775146484,primary,highway,40.762808,-73.7547389
"50 EAST   86 STREET, New York, NY, 10028",Address,High,40.780502,-73.958702,,,,
"1271 THIRD AVENUE, New York, NY, 10021",Address,High,40.770442962646484,-73.95973205566406,,,,
"4530 23 STREET, New York, NY, 11101",Address,High,40.74608612060547,-73.94581604003906,,,,
"1723 EMMONS AVENUE, New York, NY, 11235",Address,High,40.58341160416603,-73.95126052200794,house,place,40.5834522828283,-73.9512476767677
"450 LEXINGTON AVENUE, New York, NY, 10017",Address,High,40.75327053666115,-73.97478818893433,secondary,highway,40.7756382,-73.9584017
"130 MADISON AVENUE, New York, NY, 10016",Address,High,40.745792388916016,-73.9847412109375,restaurant,amenity,40.7457391,-73.9846188
"154 COURT STREET, New York, NY, 11201",Address,High,40.688747,-73.99311,house,place,40.6887571,-73.9931073174713
"175 WEST    4 STREET, New York, NY, 10014",Address,High,40.732395,-74.001518,,,,
"7912 THIRD AVENUE, New York, NY, 11209",Address,High,40.6283073425293,-74.0294189453125,,,,
"336 THIRD AVENUE, New York, NY, 10010",Address,High,40.74011993408203,-73.98258209228516,,,,
"95 CHURCH AVENUE, New York, NY, 11218",Address,High,40.6429328918457,-73.97982788085938,house,place,40.64284905,-73.9798075501967
"1215 EAST GUN HILL ROAD, New York, NY, 10469",Address,High,40.87311553955078,-73.85203552246094,house,place,40.87302905,-73.8519641397688
"142 WEST   49 STREET, New York, NY, 10019",Address,High,40.7598991394043,-73.98299407958984,,,,
"214 10 AVENUE, New York, NY, 10011",Address,High,40.747295916080475,-74.00438837707043,,,,
"8401 NORTHERN BOULEVARD, New York, NY, 11372",Address,High,40.75601577758789,-73.88340759277344,primary,highway,40.7543289,-73.897043
"13310 CROSS BAY BOULEVARD, New York, NY, 11417",Address,High,40.674888610839844,-73.84364318847656,trunk,highway,40.6658022,-73.8414336
"101 EAST  161 STREET, New York, NY, 10451",Address,High,40.82769775390625,-73.92427062988281,,,,
"216 EAST   10 STREET, New York, NY, 10003",Address,High,40.729164123535156,-73.98592376708984,,,,
"375 GREENWICH STREET, New York, NY, 10013",Address,High,40.719608,-74.00991,house,place,40.7196109,-74.0100722
"321 WEST  125 STREET, New York, NY, 10027",Address,High,40.81093215942383,-73.95217895507812,,,,
"983 WYCKOFF AVENUE, New York, NY, 11385",Address,High,40.696327,-73.904907,house,place,40.6964251875,-73.9057923125
"18 EAST   54 STREET, New York, NY, 10022",Address,High,40.7606915384531,-73.97467084228992,,,,
"430 LAFAYETTE STREET, New York, NY, 10003",Address,High,40.72926330566406,-73.99246978759766,house,place,40.72923585,-73.9924186025326
"5615 MYRTLE AVENUE, New York, NY, 11385",Address,High,40.70035171508789,-73.90565490722656,primary,highway,40.7033802,-73.8628182
"5373 65 PLACE, New York, NY, 11378",Address,High,40.729209899902344,-73.89990997314453,,,,
"692 3 AVENUE, New York, NY, 10017",Address,High,40.75189971923828,-73.97402954101562,,,,
"8535 GRAND AVENUE, New York, NY, 11373",Address,High,40.735740661621094,-73.88130187988281,primary,highway,40.7255556,-73.8959764
"70 LINCOLN CENTER, New York, NY, 10023",Address,High,40.77257238328457,-73.98271143436432,,,,
"1107 RUTLAND ROAD, New York, NY, 11212",Address,High,40.66492462158203,-73.92337799072266,house,place,40.66490465,-73.923369319838
"1076 JACKSON AVENUE, New York, NY, 11101",Address,High,40.7426872253418,-73.95182800292969,house,place,40.7428588979592,-73.9522275816327
"112 AVENUE A, New York, NY, 10009",Address,High,40.725874453783035,-73.98359254002571,house,place,40.7258918,-73.9834666
"4220 QUENTIN ROAD, New York, NY, 11234",Address,High,40.617540031671524,-73.93221080303192,house,place,40.6176568,-73.9318921
"3033 TIBBETT AVE, New York, NY, 10463",Address,High,40.88036346435547,-73.9090576171875,house,place,40.8800241428571,-73.9093137142857
"17528 HILLSIDE AVENUE, New York, NY, 11432",RoadBlock,Medium,40.714599609375,-73.77571105957031,primary,highway,40.706634,-73.8065889
"151 8 AVENUE, New York, NY, 10011",Address,High,40.74211883544922,-74.00119018554688,,,,
"1416 AVENUE J, New York, NY, 11230",Address,High,40.6249,-73.9617,house,place,40.6250149,-73.9618354
"12110 LIBERTY AVENUE, New York, NY, 11419",Address,High,40.68684387207031,-73.82195281982422,tertiary,highway,40.673027,-73.9057559
"148 WEST   49 STREET, New York, NY, 10019",Address,High,40.75996398925781,-73.9831314086914,,,,
"6935 ASTORIA BOULEVARD, New York, NY, 11370",Address,High,40.7675666809082,-73.89922332763672,primary,highway,40.7648528,-73.8866287
"3814 BROADWAY, New York, NY, 11103",Address,High,40.758907318115234,-73.91944885253906,secondary,highway,40.7550435,-73.9106384
"1529 86 STREET, New York, NY, 11228",Address,High,40.61106115579605,-74.00880463421345,,,,
"4820 VERNON BOULEVARD, New York, NY, 11101",Address,High,40.74357604980469,-73.95413970947266,,,,
"449 THIRD AVENUE, New York, NY, 10016",Address,High,40.74360656738281,-73.9792709350586,,,,
"1308 MADISON AVENUE, New York, NY, 10128",Address,High,40.78507147729397,-73.95580485463142,house,place,40.785127,-73.95581875
"1464 86 STREET, New York, NY, 11228",Address,High,40.61159896850586,-74.01033782958984,,,,
"2134 FLATBUSH AVENUE, New York, NY, 11234",Address,High,40.61763381958008,-73.9318618774414,house,place,40.6177105,-73.9317363
"342 WEST   46 STREET, New York, NY, 10036",Address,High,40.760253,-73.989631,,,,
"733 2 AVENUE, New York, NY, 10016",Address,High,40.748226165771484,-73.9737319946289,,,,
"200 2 AVENUE, New York, NY, 10003",Address,High,40.73126368224621,-73.98566320538521,,,,
"4041 BROADWAY, New York, NY, 10032",Address,High,40.842861,-73.939643,house,place,40.842565,-73.939351
"621 HUDSON STREET, New York, NY, 10014",Address,High,40.73805236816406,-74.005859375,house,place,40.7380489,-74.0057854
"2655 RICHMOND AVENUE, New York, NY, 10314",Address,High,40.581342950463295,-74.16903108358383,house,place,40.5818532,-74.1659295857323
"502 6 AVENUE, New York, NY, 10011",Address,High,40.73638916015625,-73.99714660644531,,,,
"1439 2 AVENUE, New York, NY, 10021",Address,High,40.77077865600586,-73.957275390625,,,,
"22205 JAMAICA AVENUE, New York, NY, 11428",Address,High,40.720733642578125,-73.73233032226562,primary,highway,40.7245572,-73.7241592
"26521 UNION TURNPIKE, New York, NY, 11040",RoadBlock,Medium,40.7128791809082,-73.83367156982422,secondary,highway,40.7366902,-73.7425442
"546 LA GUARDIA PLACE, New York, NY, 10012",Address,High,40.72904968261719,-73.99846649169922,,,,
"1000 5 AVENUE, New York, NY, 10028",Address,High,40.782493591308594,-73.96554565429688,,,,
"8605 ROCKAWAY BEACH BOULEVARD, New York, NY, 11693",RoadBlock,Medium,40.58570861816406,-73.81716918945312,primary,highway,40.5877576,-73.8098649
"4006 13 AVENUE, New York, NY, 11218",Address,High,40.63996933400631,-73.98704186081886,,,,
"14944 14 AVENUE, New York, NY, 11357",Address,High,40.78843688964844,-73.81433868408203,,,,
"17515 ROCKAWAY BOULEVARD, New York, NY, 11434",RoadBlock,Medium,40.656009674072266,-73.7668685913086,trunk,highway,40.6579201,-73.7707547
"237 WEST  105 STREET, New York, NY, 10025",Address,High,40.800533294677734,-73.96744537353516,,,,
"138 WEST   72 STREET, New York, NY, 10023",Address,High,40.77776336669922,-73.98035430908203,,,,
"4202 WHITE PLAINS ROAD, New York, NY, 10466",Address,High,40.89354604482651,-73.85717198252678,house,place,40.8937697,-73.8569577
"750 7 AVENUE, New York, NY, 10019",Address,High,40.760887145996094,-73.9839096069336,,,,
"550 EAST  239 STREET, New York, NY, 10470",Address,High,40.90157699584961,-73.85700988769531,,,,
"4340 WHITE PLAINS ROAD, New York, NY, 10466",Address,High,40.896731838583946,-73.8554285466671,house,place,40.8968206,-73.855369
"91 HORATIO STREET, New York, NY, 10014",Address,High,40.738806053996086,-74.00828026235104,house,place,40.7388498,-74.0083132
"293 BROADWAY, New York, NY, 11211",Address,High,40.708728,-73.958061,house,place,40.70867855,-73.9580904544263
"8620 3 AVENUE, New York, NY, 11209",Address,High,40.62295150756836,-74.03157043457031,,,,
"16245 CROSS BAY BOULEVARD, New York, NY, 11414",RoadBlock,Medium,40.65081024169922,-73.83770751953125,trunk,highway,40.6650104,-73.841231
"9301 ASTORIA BOULEVARD, New York, NY, 11369",Address,High,40.76343536376953,-73.87596893310547,primary,highway,40.762735,-73.8742091
"20 ELIZABETH STREET, New York, NY, 10013",Address,High,40.71598917245865,-73.9972597360611,restaurant,amenity,40.7160558,-73.9971443
"0 LA GUARDIA AIRPORT, New York, NY, 11369",,,,,tertiary,highway,40.7698962,-73.8684305
"355 WEST   46 STREET, New York, NY, 10036",Address,High,40.760826,-73.989814,,,,
"3114 DITMARS BOULEVARD, New York, NY, 11105",Address,High,40.7756233215332,-73.91044616699219,tertiary,highway,40.7812661,-73.9179674
"627 9 AVENUE, New York, NY, 10036",Address,High,40.760040283203125,-73.9918212890625,,,,
"8270 AUSTIN STREET, New York, NY, 11415",Address,High,40.70939254760742,-73.8300552368164,residential,highway,40.706861,-73.8269119
"153 FIRST AVENUE, New York, NY, 10003",Address,High,40.72858810424805,-73.98499298095703,,,,
